Name,Address,Longitude,Latitude
역삼아레나빌딩,서울특별시 강남구 언주로 425 (역삼동),127.0430599,37.5011154
논현역사거리,서울특별시 강남구 강남대로 538 (논현동),127.0222905,37.5102238
신사역성일빌딩,서울특별시 강남구 강남대로 584 (논현동),127.0206351,37.5139392
국기원사거리,서울특별시 강남구 테헤란로 125 (역삼동),127.0316927,37.4996098
대치재경빌딩R,서울특별시 강남구 남부순환로 2947 (대치동),127.0626760,37.4945786
봉은사역,서울특별시 강남구 봉은사로 619 (삼성동),127.0631379,37.5149947
압구정윤성빌딩,서울특별시 강남구 논현로 834 (신사동),127.0285887,37.5228353
코엑스별마당,서울특별시 강남구 영동대로 513 (삼성동),127.0594275,37.5116621
삼성역섬유센터R,서울특별시 강남구 테헤란로 518 (대치동),127.0605968,37.5076008
압구정R,서울특별시 강남구 언주로 861 (신사동),127.0331634,37.5274157
수서역R,서울특별시 강남구 광평로 281 (수서동),127.1030870,37.4881219
양재강남빌딩R,서울특별시 강남구 남부순환로 2621 (도곡동),127.0366398,37.4852517
선릉동신빌딩R,서울특별시 강남구 테헤란로 409 (삼성동),127.0504072,37.5053676
봉은사로선정릉,서울특별시 강남구 봉은사로 446 (삼성동),127.0485264,37.5113651
강남오거리,서울특별시 강남구 봉은사로2길 39 (역삼동),127.0266873,37.5020758
스타필드코엑스몰R,서울특별시 강남구 영동대로 513 (삼성동) 코엑스 A106호,127.0594275,37.5116621
강남구청정문,서울특별시 강남구 학동로 419 (청담동),127.0459958,37.5183063
도곡공원,서울특별시 강남구 도곡로 205 (역삼동),127.0413818,37.4929277
강남R,서울특별시 강남구 강남대로 390 (역삼동),127.0287090,37.4979010
대치은마사거리,서울특별시 강남구 도곡로 457 (대치동),127.0602016,37.4990048
청담영동대로,서울특별시 강남구 영동대로 720 (청담동),127.0564611,37.5221933
압구정,서울특별시 강남구 압구정로30길 17 (신사동),127.0295456,37.5263219
신사가로수,서울특별시 강남구 가로수길 59,127.0225386,37.5218965
청담스타R,서울특별시 강남구 도산대로57길 24 (청담동),127.0417755,37.5252561
강남우성,서울특별시 강남구 강남대로 328 (역삼동),127.0309385,37.4924281
학동사거리,서울특별시 강남구 도산대로 328 (논현동),127.0379816,37.5223957
대치사거리,서울특별시 강남구 삼성로 402 (대치동),127.0588557,37.5033724
포스코사거리,서울특별시 강남구 테헤란로 505 (삼성동) 화진빌딩,127.0574627,37.5075748
을지병원사거리,"서울특별시 강남구 논현로 752 (논현동,구산빌딩)",127.0286662,37.5191620
신사역,서울특별시 강남구 도산대로 108 (논현동) 렉스타워,127.0206793,37.5161887
도곡역,서울특별시 강남구 남부순환로 2909 (대치동),127.0574186,37.4921910
서울세관사거리,서울특별시 강남구 언주로 650 (논현동) 한국건설기술인협회,127.0357737,37.5149187
청담사거리,서울특별시 강남구 도산대로 458 (청담동) 리츠타워,127.0468799,37.5237774
한티역,"서울특별시 강남구 도곡로 408, 디마크빌딩 101호 (대치동)",127.0552500,37.4966282
역삼초교사거리,서울특별시 강남구 역삼로 123 (역삼동),127.0330224,37.4941840
코엑스몰,서울특별시 강남구 영동대로 513 (삼성동) O103호,127.0594275,37.5116621
가로수길,"서울특별시 강남구 논현로175길 94, 1~2층 (신사동)",127.0216592,37.5231839
역삼대로,"서울특별시 강남구 테헤란로 211, 한국고등교육재단빌딩 1층 (역삼동)",127.0392851,37.5018938
역삼포스코,"서울특별시 강남구 테헤란로 134, P&S TOWER (역삼동)",127.0337289,37.4994283
강남대로,"서울특별시 강남구 강남대로 456, 한석타워 2층 1-2호 (역삼동)",127.0255916,37.5031776
청담,"서울특별시 강남구 도산대로 532, 인희빌딩 1층 (청담동)",127.0515992,37.5243767
삼성도심공항,서울특별시 강남구 테헤란로87길 33 (삼성동),127.0579482,37.5098304
삼성교,"서울특별시 강남구 영동대로86길 12, 동남유화빌딩 1층",127.0652102,37.5078308
학동역,서울특별시 강남구 논현로 704 (논현동),127.0307899,37.5146045
대치,서울특별시 강남구 도곡로 511 (대치동),127.0622564,37.4996454
SSG마켓도곡R,"서울특별시 강남구 언주로30길 57, 타워팰리스Ⅱ F 지하1층 (도곡동)",127.0546504,37.4897178
삼성,"서울특별시 강남구 테헤란로 443, 애플트리타워 1층 (삼성동)",127.0556179,37.5069533
선릉세화빌딩,서울특별시 강남구 테헤란로64길 18 (대치동) 1층,127.0512200,37.5037780
압구정역,"서울특별시 강남구 압구정로 170, 관영빌딩 1층 지하1층 (신사동)",127.0281253,37.5267612
압구정로,서울특별시 강남구 압구정로42길 32 (신사동),127.0347357,37.5267982
구역삼사거리,서울특별시 강남구 논현로 401 (역삼동),127.0389176,37.4959353
큰길타워,"서울특별시 강남구 테헤란로 223, 큰길타워빌딩 (역삼동)",127.0406935,37.5023961
강남구청역,"서울특별시 강남구 선릉로 669, 웰빙센터 1층 (논현동)",127.0412370,37.5166379
대치역,서울특별시 강남구 남부순환로 2936 (대치동) 107호,127.0618767,37.4933850
포이,서울특별시 강남구 논현로 88 (개포동),127.0451614,37.4778221
아크플레이스,서울특별시 강남구 테헤란로 142 (역삼동),127.0349637,37.4997343
학여울역,서울특별시 강남구 영동대로 215 (대치동),127.0685376,37.4980052
선정릉역,서울특별시 강남구 봉은사로 407 (삼성동) 에프오빌딩,127.0445725,37.5107811
삼성현대힐,서울특별시 강남구 삼성로 605 (삼성동),127.0527357,37.5134928
GS타워,서울특별시 강남구 논현로 508 (역삼동),127.0373364,37.5019949
압구정미소,서울특별시 강남구 논현로 841 (신사동),127.0277620,37.5240297
선릉역,"서울특별시 강남구 테헤란로 334, LG화재 빌딩 (역삼동)",127.0485523,37.5039513
코엑스사거리,서울특별시 강남구 영동대로 616 (삼성동),127.0602256,37.5152567
역삼럭키,서울특별시 강남구 도곡로 183 (역삼동),127.0394115,37.4922524
청담공원,서울특별시 강남구 학동로 506 (삼성동),127.0514887,37.5187057
신압구정,서울특별시 강남구 언주로174길 29 (신사동),127.0364849,37.5281233
아크로힐스논현,"서울특별시 강남구 봉은사로 304, 금강빌딩 1-2층 (역삼동)",127.0404241,37.5089816
강남비젼타워,"서울특별시 강남구 테헤란로2길 27, 1층 101호 (역삼동)",127.0297218,37.4965038
압구정로데오역,"서울특별시 강남구 선릉로 836, 삼원빌딩 1,2층 (청담동)",127.0405477,37.5265481
르네상스사거리,서울특별시 강남구 테헤란로 306 (역삼동),127.0441312,37.5025910
포스코,"서울특별시 강남구 삼성로86길 7, 1층 (대치동)",127.0579627,37.5057792
선릉로,"서울특별시 강남구 선릉로93길 22, 대흥빌딩 1층 (역삼동)",127.0467695,37.5049950
논현힐탑,서울특별시 강남구 논현로 648 (논현동),127.0322915,37.5115889
도산가로수길,"서울특별시 강남구 도산대로 134, 2층 (논현동)",127.0234091,37.5173572
대치한티,서울특별시 강남구 선릉로 324 (대치동),127.0520964,37.4985271
수서역사거리,서울특별시 강남구 광평로 280 (수서동),127.1031080,37.4873192
코엑스아셈타워,서울특별시 강남구 영동대로 517 (삼성동),127.0598122,37.5130928
센터필드R,서울특별시 강남구 테헤란로 231 (역삼동),127.0413566,37.5028813
도산사거리,서울특별시 강남구 언주로 727 (논현동),127.0341007,37.5196367
강남세곡,서울특별시 강남구 헌릉로569길 18 (세곡동),127.0999297,37.4672743
대치삼성프라자,서울특별시 강남구 영동대로 237 (대치동),127.0670641,37.5004652
언주역,서울특별시 강남구 봉은사로 222 (역삼동),127.0365316,37.5077680
강남역신분당역사,서울특별시 강남구 강남대로 396 (역삼동),127.0283079,37.4981647
삼성역,서울특별시 강남구 테헤란로 620 (대치동),127.0656011,37.5092066
테헤란로아남타워,서울특별시 강남구 테헤란로 311 (역삼동),127.0448419,37.5037720
강남논현,서울특별시 강남구 강남대로 512 (논현동),127.0234631,37.5078396
삼성동,서울특별시 강남구 영동대로96길 12 (삼성동),127.0636033,37.5107447
역삼이마트,서울특별시 강남구 역삼로 310 (역삼동),127.0484325,37.4992883
미아뉴타운,서울특별시 강북구 삼양로 161 (미아동),127.0211389,37.6183958
강북구청사거리,서울특별시 강북구 도봉로 365 (수유동),127.0273886,37.6400289
미아사거리역,서울특별시 강북구 도봉로 32 (미아동),127.0307281,37.6118504
수유역,서울특별시 강북구 도봉로 342 (번동),127.0261456,37.6380351
미아역,서울특별시 강북구 도봉로 196 (미아동),127.0265993,37.6261604
파라스파라서울,서울특별시 강북구 삼양로 689 (우이동) 파라스파라서울 지하1층,127.0102879,37.6644244
발산역사거리,서울특별시 강서구 공항대로 248 (마곡동),126.8348939,37.5584039
마곡역,서울특별시 강서구 공항대로 168 (마곡동),126.8261369,37.5592737
우장산역,서울특별시 강서구 강서로 267 (내발산동),126.8359390,37.5496059
마곡사이언스타워R,서울특별시 강서구 마곡동로 62 (마곡동),126.8338901,37.5605538
방화DT,서울특별시 강서구 방화대로 375 (방화동),126.8163804,37.5744365
마곡나루역,서울특별시 강서구 마곡중앙로 161-17 (마곡동),126.8259608,37.5680581
마곡GMG,"서울특별시 강서구 마곡중앙6로 16 (마곡동) 117,118,119,120호",126.8290062,37.5604016
가양역,서울특별시 강서구 양천로 476 (등촌동),126.8532854,37.5616037
화곡DT,서울특별시 강서구 등촌로 57 (화곡동),126.8631430,37.5350126
양천향교역,서울특별시 강서구 강서로 463 (마곡동),126.8404559,37.5669502
화곡동,서울특별시 강서구 화곡로 142(화곡동),126.8376195,37.5405706
등촌,서울특별시 강서구 공항대로 329 (등촌동),126.8443543,37.5582758
염창역,서울특별시 강서구 공항대로 627 (염창동),126.8745461,37.5472856
발산역,서울특별시 강서구 강서로 388 (등촌동) 그랜드마트,126.8393452,37.5602435
까치산역,서울특별시 강서구 강서로13길 3 (화곡동),126.8460657,37.5322971
화곡역8번출구,"서울특별시 강서구 강서로 179 (화곡동), 1층 일부",126.8393222,37.5423627
강서우장산,"서울특별시 강서구 강서로 231 (화곡동, 우장산역 해링턴 타워), 116/117/118/119/120호",126.8361212,37.5462462
등촌대로,"서울특별시 강서구 공항대로 543 (염창동, 센터스퀘어)",126.8664122,37.5507389
가양역사거리,"서울특별시 강서구 화곡로 416 (등촌동) 가양더스카이벨리5차 지식산업센터 101, 102, 114,~117호",126.8554197,37.5600240
내발산,"서울특별시 강서구 강서로 323 (내발산동), 101/102호",126.8365498,37.5546873
마곡웰튼,"서울특별시 강서구 마곡중앙5로 22 (마곡동), 104/105/106호",126.8253030,37.5672498
김포공항DT,서울특별시 강서구 개화동로 517 (방화동),126.8060600,37.5662794
강서NC,서울특별시 강서구 강서로56길 17 (등촌동),126.8405062,37.5599572
마곡나루공원,서울특별시 강서구 마곡중앙5로 47 (마곡동),126.8222726,37.5669048
강서구청사거리,서울특별시 강서구 화곡로 350 (화곡동),126.8522098,37.5548095
낙성대역,서울특별시 관악구 남부순환로 1908 (봉천동),126.9612248,37.4777111
관악서울대입구R,서울특별시 관악구 관악로 158 (봉천동),126.9528173,37.4793256
신림DT,서울특별시 관악구 남부순환로 1419 (신림동),126.9084306,37.4809819
서울대역,서울특별시 관악구 남부순환로 1817 (봉천동),126.9521444,37.4816412
낙성대DT,서울특별시 관악구 남부순환로 1948 (봉천동),126.9651316,37.4761875
사당,서울특별시 관악구 남부순환로 2082-25,126.9810098,37.4760614
보라매대교,서울특별시 관악구 보라매로3길 23 (봉천동) 1층,126.9255647,37.4910805
신림사거리,서울특별시 관악구 남부순환로 1619 (신림동),126.9305190,37.4846557
신림,서울특별시 관악구 신림로 355-1 (신림동),126.9291704,37.4861063
신림타임스트림,서울특별시 관악구 신림로 330 타임스트림 1층,126.9302425,37.4838598
서울대입구역,서울특별시 관악구 남부순환로 1812 (봉천동),126.9513471,37.4811325
봉천역,서울특별시 관악구 남부순환로 1730 (봉천동),126.9422621,37.4820724
건국대,서울특별시 광진구 능동로 117 (화양동),127.0711477,37.5415972
어린이대공원역,서울특별시 광진구 능동로 243 (군자동),127.0763505,37.5519457
아차산역,서울특별시 광진구 천호대로 676 (구의동),127.0899332,37.5505989
올림픽대교북단,서울특별시 광진구 광나루로 608 (구의동),127.0952817,37.5411606
구의DT,서울특별시 광진구 광나루로 519 (구의동),127.0872132,37.5453066
자양사거리,서울특별시 광진구 아차산로 355,127.0825914,37.5373363
군자역,서울특별시 광진구 천호대로 548 (군자동) 중앙빌딩,127.0790015,37.5568276
광나루,"서울특별시 광진구 아차산로 607, 1,2층 (광장동)",127.1060634,37.5473830
건대스타시티,서울특별시 광진구 아차산로 262 (자양동),127.0725939,37.5375105
자양,서울특별시 광진구 능동로 50 (자양동),127.0693472,37.5356631
건대입구,서울특별시 광진구 능동로 107 (화양동),127.0707420,37.5407034
구의역,서울특별시 광진구 아차산로 373 (구의동),127.0840486,37.5370045
광장,서울특별시 광진구 아차산로 537-17 (광장동),127.0996819,37.5435100
건국클래식,서울특별시 광진구 능동로 90 (자양동) 더 클래식500,127.0709719,37.5386303
건대후문,서울특별시 광진구 능동로 172 (화양동),127.0739740,37.5459556
중곡역,"서울특별시 광진구 능동로 400 (중곡동) 1층 108,109,110,111,112,118 6개호실",127.0844568,37.5650581
자양이마트,서울특별시 광진구 아차산로 272 (자양동) 지하1층,127.0729962,37.5385583
뚝섬유원지역,"서울특별시 광진구 능동로 18 (자양동, 이튼타워리버3차)",127.0681986,37.5327596
군자사거리,서울특별시 광진구 천호대로 549 (중곡동) 1층,127.0792261,37.5576985
금천구청역,"서울특별시 금천구 시흥대로73길 67 (시흥동)112,113,114,115호",126.8957474,37.4559426
가산에스케이,서울특별시 금천구 가산디지털1로 171 (가산동),126.8806788,37.4807624
독산사거리,서울특별시 금천구 시흥대로 426 (독산동),126.8987870,37.4715773
금천시흥,서울특별시 금천구 시흥대로 164 (시흥동),126.9032283,37.4488933
가산디지털단지역,서울특별시 금천구 벚꽃로 298 (가산동),126.8837813,37.4814002
금천독산,서울특별시 금천구 두산로 70 (독산동),126.8956207,37.4689627
가산디지털,서울특별시 금천구 가산디지털1로 168 (가산동),126.8826362,37.4799665
W-Mall,서울특별시 금천구 디지털로 188 (가산동),126.8876842,37.4773538
마리오아울렛,서울특별시 금천구 벚꽃로 266 마리오아울렛3관,126.8850273,37.4784856
가산브이타워,서울특별시 금천구 가산디지털1로 128 (가산동),126.8837009,37.4772358
가산그레이트,"서울특별시 금천구 디지털로9길 32, 갑을그레이트밸리 1층 (가산동)",126.8874869,37.4794816
독산역,"서울특별시 금천구 가산디지털1로 16 (가산동), 107-2, 108, 109호",126.8880861,37.4676102
가산현대아울렛,"서울특별시 금천구 디지털로10길 9 (가산동), 1층 일부",126.8891282,37.4775997
월계역,"서울특별시 노원구 초안산로2라길26 월계동(104,105,106호)",127.0576337,37.6305211
월계트레이더스,서울특별시 노원구 마들로3길 15 (월계동),127.0613340,37.6269007
상계초교사거리,서울특별시 노원구 노원로 449 (상계동),127.0664416,37.6566695
공릉DT,서울특별시 노원구 동일로 1015 (공릉동),127.0742209,37.6207527
노원마들역,"서울특별시 노원구 노원로 569 (상계동, 임광아파트)",127.0570372,37.6608056
공릉역,서울특별시 노원구 동일로 1081 (공릉동),127.0722880,37.6263815
은행사거리,"서울특별시 노원구 중계로 217, 중흥빌딩 103,203호 (중계동)",127.0760057,37.6505113
노원KT,"서울특별시 노원구 노해로 502, (주)KT 노원사옥 (상계동)",127.0636241,37.6545660
광운대,서울특별시 노원구 석계로 104 (월계동),127.0607341,37.6231789
중계역,"서울특별시 노원구 동일로 1339, 대한빌딩 (상계동)",127.0621997,37.6481635
노원역,서울특별시 노원구 동일로 1413 (상계동) 1층,127.0600404,37.6547775
월계이마트,서울특별시 노원구 마들로3길 15 (월계동),127.0613340,37.6269007
태릉입구역DT,서울특별시 노원구 화랑로 469 (공릉동),127.0793700,37.6192542
노원상계,서울특별시 노원구 동일로215길 2 (상계동),127.0609342,37.6515441
창동이마트,서울특별시 도봉구 노해로65길 4 (창동),127.0466993,37.6516362
쌍문역,서울특별시 도봉구 도봉로 480 (창동),127.0349027,37.6483498
쌍문도봉로,서울특별시 도봉구 도봉로 444 (창동),127.0332535,37.6453822
방학역,"서울특별시 도봉구 도봉로 684 (방학동)101,102,113,114,115호",127.0435897,37.6653467
노량진동,"서울특별시 동작구 노량진로 190 (노량진동, 고려교육타워-어바니엘한강) 101호~105호",126.9468626,37.5129588
남성역,서울특별시 동작구 사당로 219 (사당동),126.9726736,37.4841688
상도역,서울특별시 동작구 상도로37길 1 (상도1동),126.9484501,37.5032360
보라매공원R,"서울특별시 동작구 보라매로5길 35 (신대방동, 파크스퀘어,보라매현대APT)",126.9233880,37.4922350
이수자이,서울특별시 동작구 사당로 300 (사당동 이수자이),126.9805813,37.4843925
노량진역,서울특별시 동작구 노량진로 134 (노량진동),126.9409005,37.5133690
신대방삼거리역,서울특별시 동작구 상도로 102 (상도동),126.9317763,37.4999427
중앙대,서울특별시 동작구 흑석로 75-1 (흑석동),126.9581303,37.5069728
숭실대입구역,서울특별시 동작구 상도로 354 (상도동),126.9527459,37.4968808
숭실대,서울특별시 동작구 사당로 4 (상도동),126.9548687,37.4954152
사당역,"서울특별시 동작구 동작대로 21, 양지빌딩 1-3층 (사당동)",126.9813713,37.4784873
서강대프라자,서울특별시 마포구 백범로 35 (신수동),126.9410634,37.5517132
상암YTN,서울특별시 마포구 상암산로 76 (상암동),126.8923741,37.5791261
마포용강동,서울특별시 마포구 토정로 295 (용강동),126.9422329,37.5412060
홍대입구역사거리R,서울특별시 마포구 양화로 125 (서교동),126.9203014,37.5547340
마포경찰서후문,서울특별시 마포구 마포대로 173-14 (아현동),126.9536224,37.5510075
공덕,서울특별시 마포구 마포대로 130 (공덕동),126.9529879,37.5459570
합정폴리스R,"서울특별시 마포구 양화로 45 (서교동, 메세나폴리스)",126.9137390,37.5510463
홍대공항철도역,서울특별시 마포구 양화로 178 (동교동),126.9252132,37.5575046
마포염리,서울특별시 마포구 독막로 311 (염리동),126.9474817,37.5439955
서강광흥창역,서울특별시 마포구 서강로 69 (창전동),126.9316793,37.5494280
합정,"서울특별시 마포구 월드컵로1길 14 (합정동) 마포한강푸르지오 110, 111, 112-2",126.9121599,37.5499472
서강대흥역,서울특별시 마포구 백범로 89-5 (대흥동),126.9415219,37.5482429
서교동사거리,서울특별시 마포구 양화로 105 (서교동),126.9185836,37.5534171
상암사보이시티,서울특별시 마포구 월드컵북로54길 17 (상암동),126.8885633,37.5813386
신촌오거리,서울특별시 마포구 신촌로16길 10 (노고산동),126.9346957,37.5551778
상암디지털큐브,서울특별시 마포구 상암산로 34,126.8892881,37.5762163
상수역,서울특별시 마포구 독막로 88 (상수동),126.9232166,37.5475082
공덕오거리,서울특별시 마포구 마포대로 86 (도화동) 창강빌딩,126.9505813,37.5426447
서강대,서울특별시 마포구 백범로 23 (신수동),126.9375586,37.5524343
상암MBC,서울특별시 마포구 성암로 267 (상암동),126.8909890,37.5811234
홍대역,"서울특별시 마포구 양화로 165, 상진빌딩 1층 (동교동)",126.9236203,37.5572103
동교,"서울특별시 마포구 월드컵북로 22, 영준빌딩 1층 (동교동)",126.9199773,37.5568410
애오개역,"서울특별시 마포구 마포대로 201, 마포트라팰리스II (아현동)",126.9555972,37.5522055
상암DMC,"서울특별시 마포구 월드컵북로 375, DMC이안오피스텔1단지 102호,202호 (상암동)",126.8906892,37.5775718
마포일진빌딩,"서울특별시 마포구 마포대로 45, 일진빌딩 1층 (도화동)",126.9463744,37.5404731
마포아크로,서울특별시 마포구 마포대로 68 (도화동) 마포아크로타워,126.9489800,37.5413405
홍대삼거리,서울특별시 마포구 와우산로 64 (상수동),126.9232577,37.5502077
망원역,서울특별시 마포구 월드컵로 74 (서교동),126.9107211,37.5557789
마포이마트,서울특별시 마포구 백범로 212 (신공덕동) 마포이마트,126.9535163,37.5424867
합정메세나몰,"서울특별시 마포구 양화로 45 (서교동, 메세나폴리스)",126.9137390,37.5510463
아현역대로,서울특별시 마포구 신촌로 262 (아현동),126.9548260,37.5570560
디지털미디어시티역,서울특별시 마포구 성암로 179 (상암동),126.8986284,37.5761771
홍대역8번출구,서울특별시 마포구 양화로 166 (동교동),126.9241712,37.5567326
합정푸르지오,"서울특별시 마포구 월드컵로3길 14 (합정동, 마포 한강 2차 푸르지오)",126.9119200,37.5511438
망원한강공원,서울특별시 마포구 마포나루길 435 (망원동),126.8963235,37.5539912
가재울뉴타운,"서울특별시 서대문구 가재울미래로 2 (남가좌동, DMC파크뷰자이)",126.9176131,37.5728378
남가좌사거리,"서울특별시 서대문구 거북골로 84 (남가좌동, DMC에코자이104동)",126.9191564,37.5774713
신촌역,서울특별시 서대문구 신촌로 73 (창천동),126.9345387,37.5563093
연희동,서울특별시 서대문구 연희로 97 (연희동),126.9305341,37.5668065
아현역,"서울특별시 서대문구 신촌로35길 10 (북아현동, e편한세상신촌 4단지)",126.9558605,37.5586219
홍제역,서울특별시 서대문구 통일로 451 (홍제동),126.9438680,37.5886728
연세백양로,서울특별시 서대문구 연세로 50 (신촌동) 연세대학교,126.9390292,37.5671131
연희DT,서울특별시 서대문구 연희로 144 (연희동),126.9338901,37.5701891
경기대,서울특별시 서대문구 충정로 53 (충정로2가),126.9646501,37.5637531
신촌,서울특별시 서대문구 연세로 10-1 (창천동),126.9371419,37.5565000
이대R,서울특별시 서대문구 이화여대길 34 (대현동),126.9459565,37.5584288
연세종합관,"서울특별시 서대문구 연세로 50, 연세세브란스 종합관 (신촌동)",126.9390292,37.5671131
이대ECC,서울특별시 서대문구 이화여대길 52 (대현동) 이화여자대학교 B415호,126.9472448,37.5617396
연대,서울특별시 서대문구 연세로 35 (창천동),126.9367303,37.5587289
신촌아트레온,서울특별시 서대문구 신촌로 129 (창천동),126.9403064,37.5565738
충정로역,서울특별시 서대문구 충정로 23,126.9629441,37.5611475
연대동문,서울특별시 서대문구 성산로 565 (대신동),126.9463688,37.5664624
신촌명물거리,"서울특별시 서대문구 명물길 24, 1-5층 (창천동)",126.9381557,37.5578041
충정타워,"서울특별시 서대문구 서소문로 21, 충정타워빌딩 1층 (충정로3가)",126.9641010,37.5598996
이대역,서울특별시 서대문구 신촌로 183 (대현동),126.9463252,37.5570866
북가좌DT,서울특별시 서대문구 응암로 85 (북가좌동),126.9115294,37.5805891
현대신촌,서울특별시 서대문구 신촌로 83 (창천동),126.9358309,37.5560846
방배로,서울특별시 서초구 방배로 52 (방배동),126.9994288,37.4793513
강남교보타워R,서울특별시 서초구 강남대로 465 (서초동),127.0241492,37.5038061
방배다이치빌딩,서울특별시 서초구 방배로 114 (방배동),126.9961050,37.4843447
센트럴F1,서울특별시 서초구 신반포로 176 (반포동),127.0031828,37.5049856
서초역이화빌딩,서울특별시 서초구 반포대로21길 3 (서초동),127.0090455,37.4883093
서초구청,서울특별시 서초구 남부순환로 2557 (서초동),127.0300864,37.4844454
서초우성사거리,서울특별시 서초구 강남대로 343 (서초동),127.0292591,37.4935194
이수역사거리,"서울특별시 서초구 서초대로 3-4 (방배동, 방배디오슈페리움1)",126.9829747,37.4860933
강남대로신사,서울특별시 서초구 강남대로 595 (잠원동),127.0195571,37.5148598
서울고속터미널,서울특별시 서초구 신반포로 194 (반포동),127.0058468,37.5056800
강남대로논현R,서울특별시 서초구 강남대로85길 5 (반포동),127.0225908,37.5074300
방배,서울특별시 서초구 방배로 211,126.9906595,37.4920013
방배카페거리,서울특별시 서초구 방배중앙로 162 (방배동),126.9865579,37.4935230
서초법원,서울특별시 서초구 서초대로 274 (서초동),127.0119352,37.4928317
청계산입구역,서울특별시 서초구 청계산로 203 (신원동),127.0563097,37.4473274
사당로데오,서울특별시 서초구 방배천로 5-4(방배동),126.9821617,37.4773474
파미에파크R,서울특별시 서초구 사평대로 205 (반포동) CENTRALCITY,127.0078453,37.5044921
교대역,서울특별시 서초구 서초중앙로 138 (서초동) 우림빌딩,127.0139865,37.4942515
양재역,서울특별시 서초구 강남대로 202 (양재동) 모산빌딩,127.0368774,37.4823345
논현역,서울특별시 서초구 강남대로 557 (잠원동) 1~2층,127.0206713,37.5115656
이수역,서울특별시 서초구 동작대로 112 (방배동),126.9830137,37.4866077
내방역,서울특별시 서초구 방배로 184 (방배동) 대풍빌딩,126.9924900,37.4900283
서초파라곤,서울특별시 서초구 서초대로74길 29 (서초동) 서초파라곤,127.0274412,37.4949505
서울아트센터,서울특별시 서초구 남부순환로 2395 (서초동) 호경빌딩,127.0123800,37.4806827
서초중앙로,서울특별시 서초구 서초중앙로 225,127.0115771,37.5016656
센트럴시티,서울특별시 서초구 신반포로 176 (반포동),127.0031828,37.5049856
강남삼성타운,서울특별시 서초구 서초대로78길 24 (서초동),127.0277674,37.4955507
방배역,서울특별시 서초구 방배로 84 (방배동),126.9976577,37.4819952
반포역,서울특별시 서초구 신반포로 257 (잠원동) 신반포11차상가,127.0119428,37.5086180
남부터미널,"서울특별시 서초구 서초중앙로 26, 래미안서초유니빌 1층 101호 (서초동)",127.0170065,37.4846962
뉴코아강남,서울특별시 서초구 잠원로 69 (잠원동) 킴스클럽,127.0074591,37.5092391
강남2,"서울특별시 서초구 서초대로77길 27, 유빌딩 1,2층 (서초동)",127.0255366,37.5001007
교대,서울특별시 서초구 서초중앙로 118 (서초동),127.0142448,37.4924002
하이브랜드,"서울특별시 서초구 매헌로 16, 리빙관 101호 (양재동)",127.0366233,37.4631951
신논현역,서울특별시 서초구 강남대로 483 (반포동) 청호빌딩,127.0236717,37.5053360
영동2교,"서울특별시 서초구 논현로 139, 대흥빌딩 (양재동)",127.0426083,37.4820058
남부터미널2,서울특별시 서초구 효령로 274 (서초동),127.0142312,37.4844016
서래마을입구,서울특별시 서초구 서래로 48 (반포동),126.9985742,37.4992809
몬테소리,서울특별시 서초구 강남대로 399 (서초동),127.0268507,37.4982763
서초역,서울특별시 서초구 반포대로 118 (서초동),127.0086306,37.4906702
교대법원,서울특별시 서초구 서초중앙로 164 (서초동),127.0133991,37.4963753
강남GT타워,"서울특별시 서초구 서초대로 411, GT타워 (서초동)",127.0259786,37.4979716
서초동,"서울특별시 서초구 남부순환로339길 64, 현우빌딩 1층 (서초동)",127.0215680,37.4859281
서울교대,"서울특별시 서초구 서초중앙로 64, 1층 (서초동)",127.0151984,37.4874525
강남에비뉴,"서울특별시 서초구 서초대로77길 62, 강남역아이파크 B102~B105 (서초동)",127.0239029,37.5027557
반포자이,서울특별시 서초구 잠원로 24 (반포동),127.0098751,37.5071118
서이초교사거리,서울특별시 서초구 사임당로 143 (서초동),127.0252522,37.4918563
서울웨이브아트센터,서울특별시 서초구 잠원로 145-35 (잠원동),127.0072812,37.5183880
길음역,서울특별시 성북구 정릉로 376 (돈암동),127.0253655,37.6020736
미아이마트,서울특별시 성북구 도봉로 17 (길음동),127.0299225,37.6108546
종암DT,서울특별시 성북구 종암로 17 (종암동),127.0360898,37.5919109
미아,서울특별시 성북구 동소문로 314 (하월곡동),127.0293214,37.6076219
성신여대정문,서울특별시 성북구 보문로34길 62 (동선동2가),127.0188736,37.5908568
종암,서울특별시 성북구 종암로 122 (종암동),127.0339268,37.6011698
삼선교,서울특별시 성북구 동소문로 10 (동소문동2가),127.0073399,37.5887382
월곡역,"서울특별시 성북구 화랑로 76, 101-1호 (하월곡동)",127.0405332,37.6018543
고대,서울특별시 성북구 고려대로24길 51 (안암동5가),127.0297329,37.5839306
현대미아,서울특별시 성북구 동소문로 315 (길음동) 지하1층,127.0287466,37.6084082
성신여대,서울특별시 성북구 동소문로24길 12 (동선동1가),127.0184313,37.5931535
안암역,서울특별시 성북구 고려대로 102-2 (안암동5가),127.0307665,37.5861092
한성대입구역,서울특별시 성북구 성북로 11 (성북동1가),127.0048919,37.5890159
고대안암병원,서울특별시 성북구 고려대로 73 (안암동5가),127.0263537,37.5870165
장위뉴타운,서울특별시 성북구 장월로38길 4 (장위동),127.0515499,37.6180026
송파나루역DT,서울특별시 송파구 오금로 142 (송파동),127.1102675,37.5108618
송파헬리오시티,"서울특별시 송파구 송파대로 345 (가락동, 헬리오시티)",127.1072604,37.4976183
잠실시그마타워,서울특별시 송파구 올림픽로 289 (신천동),127.1025391,37.5145775
문정법원로R,서울특별시 송파구 송파대로 201 (문정동),127.1206324,37.4878287
송파개롱역,서울특별시 송파구 오금로 420 (가락동),127.1362955,37.4969986
문정하비오,"서울특별시 송파구 송파대로 111 (문정동, 파크하비오) 204동 104호~107호",127.1232611,37.4805094
문정역,"서울특별시 송파구 송파대로 167 (문정동)테라타워 B동 137호~139호,204호",127.1210395,37.4848354
잠실대교남단R,서울특별시 송파구 송파대로 570 타워 730 1층,127.0991124,37.5157873
송파위례,"서울특별시 송파구 위례광장로 230 (장지동, 위례2차아이파크)",127.1437404,37.4800734
송파방이DT,서울특별시 송파구 오금로 241 (방이동),127.1205022,37.5065501
올림픽평화의문,서울특별시 송파구 위례성대로 38 (방이동) 해태그린피아빌라트,127.1165149,37.5157054
송파아이파크,서울특별시 송파구 법원로 55 (문정동),127.1217526,37.4798850
송파사거리,서울특별시 송파구 송파대로 386 (송파동),127.1103712,37.5022812
석촌서호,서울특별시 송파구 석촌호수로 176 (삼전동),127.0966280,37.5063728
문정로데오,서울특별시 송파구 동남로 141 (가락동),127.1262653,37.4919038
올림픽훼미리,서울특별시 송파구 중대로 68 (문정동),127.1164484,37.4915772
올림픽공원남문,서울특별시 송파구 위례성대로 102 (방이동),127.1231700,37.5133094
방이역,"서울특별시 송파구 마천로 53, 1~2층 (오금동)",127.1266733,37.5085536
석촌호수,서울특별시 송파구 석촌호수로 262 (송파동),127.1052810,37.5094596
잠실푸르지오월드,"서울특별시 송파구 올림픽로35가길 9, 잠실푸르지오월드마크 1층 (신천동)",127.1036580,37.5174066
잠실새내역,서울특별시 송파구 올림픽로 96 (잠실동),127.0812295,37.5114713
잠실역,"서울특별시 송파구 송파대로 562 (신천동, 웰리스타워,삼성웰리스아파트) 1층,2층",127.0995242,37.5153483
갤러리아팰리스,"서울특별시 송파구 올림픽로 212, 갤러리아 팰리스 (잠실동)",127.0939713,37.5111896
아시아선수촌,서울특별시 송파구 백제고분로 69 (잠실동),127.0790500,37.5105300
올림픽아파트,서울특별시 송파구 양재대로 1220 (방이동),127.1332661,37.5153388
가락본동,서울특별시 송파구 송파대로30길 13 (가락동),127.1187969,37.4948903
석촌역,"서울특별시 송파구 백제고분로 358, 1층 (석촌동)",127.1061158,37.5043026
가락시장역,"서울특별시 송파구 중대로 121, 롯데캐슬 파인힐 1층 (가락동)",127.1214157,37.4943645
가든파이브,서울특별시 송파구 충민로 10 (문정동) 가든파이브툴,127.1189685,37.4786598
송파NC,서울특별시 송파구 충민로 66 (문정동) 가든파이브라이프 패션관1층,127.1249617,37.4776148
송파거여역,서울특별시 송파구 오금로 493 (거여동),127.1437006,37.4936609
몽촌토성역,서울특별시 송파구 위례성대로 6 (방이동),127.1131699,37.5168472
송파KT,"서울특별시 송파구 잠실로 209 (신천동), 오피스빌딩 1층 2~4호",127.1063644,37.5138710
송파마천사거리DT,서울특별시 송파구 거마로 78 (마천동),127.1476493,37.4997580
목동파리공원,서울특별시 양천구 목동동로 377 (목동),126.8788616,37.5353221
등촌역,서울특별시 양천구 공항대로 566 (목동) 1층 2층,126.8680891,37.5489293
목동행복한,서울특별시 양천구 목동동로 309 (목동),126.8759727,37.5291902
신정DT,서울특별시 양천구 신월로 341 (신정동),126.8588611,37.5220090
목동역,서울특별시 양천구 목동로 203 (신정동) 1층일부,126.8638157,37.5267086
목동오목로,"서울특별시 양천구 오목로 279 (목동) 102,103,104,105호",126.8684017,37.5259191
목동8단지,서울특별시 양천구 목동서로 299 (신정동),126.8688442,37.5205739
오목교역,서울특별시 양천구 오목로 354 (목동),126.8763976,37.5235668
신월IC DT,서울특별시 양천구 남부순환로 430 (신월동),126.8321501,37.5295080
목동7단지,서울특별시 양천구 목동서로 213 (목동) 세신비젼프라자,126.8706302,37.5280187
목동5단지,"서울특별시 양천구 목동동로 411, 1동 116호(목동, 부영그린타운3차)",126.8822137,37.5367263
목동,서울특별시 양천구 목동서로 67 (목동) 우성에펠타운,126.8785570,37.5363941
현대목동,"서울특별시 양천구 목동동로 257 (목동, 현대하이페리온) 지하2층",126.8744941,37.5269242
목동파라곤,"서울특별시 양천구 목동서로 155, 목동파라곤 1층 (목동)",126.8752425,37.5299683
목동트라팰리스,서울특별시 양천구 오목로 299 (목동),126.8710840,37.5260900
목동10단지,"서울특별시 양천구 목동서로 401 (신정동, 대림아크로빌), 상가A동 101,101-1호",126.8597299,37.5153094
신월동DT,서울특별시 양천구 남부순환로 319 (신월동),126.8270914,37.5382766
타임스퀘어R,서울특별시 영등포구 영중로 15 지하 1층 (영등포동4가),126.9042788,37.5176343
샛강역,서울특별시 영등포구 여의대방로 376 (여의도동),126.9313545,37.5181886
영등포역,서울특별시 영등포구 경인로 870 (영등포동1가),126.9092830,37.5169829
당산대로,서울특별시 영등포구 양평로 22 (당산동6가),126.9039335,37.5331573
여의도IFC몰(L1)R,서울특별시 영등포구 국제금융로 10 (여의도동) 지하1층 178호,126.9253589,37.5245995
여의도KBS R,서울특별시 영등포구 의사당대로 26 (여의도동),126.9181067,37.5265371
여의도화재보험,서울특별시 영등포구 국제금융로6길 38 (여의도동),126.9260068,37.5213869
국회대로,서울특별시 영등포구 국회대로 786 (여의도동),126.9196000,37.5302889
영등포KT,서울특별시 영등포구 영중로 119 (영등포동8가),126.9051656,37.5268606
여의도공원R,서울특별시 영등포구 여의공원로 101 (여의도동),126.9248993,37.5292711
국회의사당역,서울특별시 영등포구 의사당대로 8 (여의도동),126.9169088,37.5278720
선유도역,서울특별시 영등포구 양평로 115 (양평동4가),126.8946105,37.5373153
여의도역R,서울특별시 영등포구 의사당대로 83 (여의도동) 1층,126.9234407,37.5233663
선유동이레빌딩,서울특별시 영등포구 선유동2로 57 (양평제1동) 이레빌딩,126.8968868,37.5338308
동여의도,서울특별시 영등포구 국제금융로 86 (여의도동) 롯데캐슬 아이비,126.9321087,37.5197969
여의도ABL타워,서울특별시 영등포구 의사당대로 147 (여의도동) 알리안츠타워,126.9278415,37.5188146
영등포신길,"서울특별시 영등포구 신길로 137 (신길동) 1,2층",126.9100577,37.5046015
문래역,서울특별시 영등포구 당산로 34 (문래동3가),126.8964938,37.5174632
당산,서울특별시 영등포구 양평로 64 (당산동6가),126.8999717,37.5351430
여의도한양증권,서울특별시 영등포구 국제금융로6길 7 (여의도동) 한양증권,126.9291069,37.5224222
여의도일신,서울특별시 영등포구 은행로 11 (여의도동) 1층 1부,126.9201871,37.5279810
신세계타임스퀘어B2,"서울특별시 영등포구 영중로 9, 신세계타임스퀘어점 리빙관 지하2층 (영등포동4가)",126.9056330,37.5171711
하이테크시티,서울특별시 영등포구 경인로 775 (문래동3가) 에이스하이테크시티,126.8975806,37.5147471
여의도,서울특별시 영등포구 국제금융로2길 28 (여의도동),126.9244858,37.5241028
롯데캐슬여의도,"서울특별시 영등포구 의사당대로 127 (여의도동, 롯데캐슬엠파이어) 1층 104호",126.9265677,37.5204236
문래동,"서울특별시 영등포구 선유로 64, 대창타운빌 1층 (문래동3가)",126.8896971,37.5196346
신세계타임스퀘어1F,"서울특별시 영등포구 영중로 9, 신세계백화점 리빙관 1층 (영등포동4가)",126.9056330,37.5171711
여의도호성,"서울특별시 영등포구 여의대방로65길 24, 호성빌딩 1층 (여의도동)",126.9293053,37.5204440
타임스퀘어B2,"서울특별시 영등포구 영중로 15, 지하2층 (영등포동4가)",126.9042788,37.5176343
영등포본동,서울특별시 영등포구 영등포로 254 (영등포동3가),126.9095981,37.5186836
타임스퀘어2F,서울특별시 영등포구 영중로 15 지상2층 (영등포동4가),126.9042788,37.5176343
여의도의사당,서울특별시 영등포구 국회대로74길 12 (여의도동),126.9210610,37.5300836
여의도IFC(1F),서울특별시 영등포구 국제금융로 10 (여의도동),126.9253589,37.5245995
여의도신한투자증권타워,서울특별시 영등포구 여의대로 70 (여의도동),126.9241972,37.5248417
선유도역 1번출구,서울특별시 영등포구 양평로 128 (양평동5가)양평로 128,126.8936648,37.5382902
영등포시장역,서울특별시 영등포구 영중로 79 (영등포동7가),126.9049060,37.5234736
영등포구청역,서울특별시 영등포구 국회대로 558,126.8961241,37.5277473
서울양평역,"서울특별시 영등포구 선유서로24길 6 (양평동1가, 영등포 중흥 S-CLASS)",126.8861050,37.5235894
영등포시장교차로,서울특별시 영등포구 영중로 45 (영등포동6가),126.9044707,37.5204602
더현대서울(B2)R,서울특별시 영등포구 여의대로 108 (여의도동),126.9271941,37.5266691
당산역사거리,서울특별시 영등포구 양평로 47 (당산동5가),126.9009929,37.5338752
불광역,서울특별시 은평구 통일로 715 (대조동),126.9303002,37.6094203
구파발사거리,서울특별시 은평구 진관3로 21 은평엘크루 101동 105-108호,126.9191948,37.6394555
연신내역사거리,서울특별시 은평구 통일로 842 (불광동),126.9220944,37.6186820
연신내,서울특별시 은평구 통일로 867 (갈현동),126.9199151,37.6202446
구파발역,서울특별시 은평구 진관2로 12,126.9185510,37.6342576
은평구청입구,서울특별시 은평구 은평로 170 (응암동),126.9266658,37.6011010
은평이마트,서울특별시 은평구 은평로 111 (응암동),126.9205287,37.6008422
구산역,서울특별시 은평구 연서로 146 (대조동),126.9177227,37.6118281
수색,서울특별시 은평구 수색로 216 (수색동),126.8999707,37.5798676
녹번역,"서울특별시 은평구 통일로 636 (녹번동) 110,111,112,113,114,115호",126.9353113,37.6035172
진관DT,서울특별시 은평구 연서로 645 (진관동),126.9361598,37.6501783
연합뉴스,서울특별시 종로구 율곡로2길 25 (수송동),126.9804414,37.5744475
혜화역,서울특별시 종로구 대학로12길 4 (동숭동)1~2층,127.0021889,37.5825206
경희궁로,서울특별시 종로구 새문안로3길 15 (당주동),126.9723185,37.5717083
강북삼성병원,서울특별시 종로구 새문안로 29 (평동),126.9677500,37.5684083
종로평창동,서울특별시 종로구 평창12길 3 (평창동),126.9672314,37.6061821
광화문우체국,서울특별시 종로구 종로 6 (서린동),126.9781051,37.5698231
더종로R,서울특별시 종로구 종로 51 (종로2가),126.9836385,37.5707534
독립문역,서울특별시 종로구 송월길 155 경희궁자이 4단지 1층 팰리스애비뉴 4114~4119호,126.9612654,37.5716749
정부서울청사R,서울특별시 종로구 새문안로5가길 28 (적선동),126.9736144,37.5744582
동묘앞역,"서울특별시 종로구 종로 344 (숭인동, 대우디오빌) 101호 일부, 201호 일부",127.0161059,37.5727249
종로구청,서울특별시 종로구 삼봉로 71 (수송동),126.9811142,37.5726674
북촌로,서울특별시 종로구 북촌로4길 23 (계동),126.9864673,37.5794488
종로수송,서울특별시 종로구 종로5길 30 (청진동) 1~3층,126.9807164,37.5716593
새문안로,서울특별시 종로구 새문안로 92 (신문로1가) 광화문오피시아빌딩,126.9749335,37.5697325
안국,서울특별시 종로구 북촌로 5-1 (재동),126.9856570,37.5773808
삼청동,서울특별시 종로구 삼청로 111-1 (삼청동),126.9817558,37.5853638
광화문D타워,서울특별시 종로구 종로3길 17 (청진동) D타워,126.9789694,37.5710184
적선,"서울특별시 종로구 새문안로5길 55, 노스게이트빌딩 1층 (적선동)",126.9739852,37.5751331
인사,서울특별시 종로구 인사동길 14 (인사동),126.9869630,37.5721952
광화문,서울특별시 종로구 세종대로 167 (세종로),126.9763276,37.5712588
성대입구,서울특별시 종로구 창경궁로 235 (명륜3가),126.9983762,37.5829835
스페이스본,서울특별시 종로구 사직로8길 4 (사직동) 광화문 풍림스페이스본,126.9686008,37.5744035
주얼리시티,서울특별시 종로구 종로 183 (인의동) 효성주얼리시티,126.9983200,37.5714470
종각,서울특별시 종로구 종로 64 (종로2가),126.9845563,37.5699645
동숭로아트,서울특별시 종로구 동숭길 110 (동숭동),127.0039130,37.5829955
종로관철,"서울특별시 종로구 종로12길 21, 2층 (관철동)",126.9860066,37.5690846
경복궁역,"서울특별시 종로구 자하문로4길 6, 1층 (통의동)",126.9726447,37.5771917
이마빌딩,서울특별시 종로구 종로1길 42 (수송동),126.9789959,37.5739044
마로니에공원,"서울특별시 종로구 대학로 116, 1-2층 (동숭동)",127.0023622,37.5815610
종로3가,"서울특별시 종로구 종로 113-1, 1-4층 (종로3가)",126.9902296,37.5706002
대학로,"서울특별시 종로구 대학로 57, 홍익대학교 대학로캠퍼스 內 (연건동)",127.0013729,37.5764627
경복궁사거리,"서울특별시 종로구 율곡로 6, B동 101호(중학동, 트윈트리타워)",126.9797454,37.5754403
종로관수,서울특별시 종로구 삼일대로20길 13 (관수동),126.9886874,37.5697634
광화문교보문고,서울특별시 종로구 종로 1 (종로1가),126.9778787,37.5709477
정동,서울특별시 종로구 새문안로 42 (신문로2가),126.9700684,37.5685772
종로플레이스,서울특별시 종로구 창경궁로 120 (인의동),126.9982671,37.5729895
강북삼성병원1층,서울특별시 종로구 새문안로 29 (평동),126.9677500,37.5684083
동숭길입구,서울특별시 종로구 대학로 146 (혜화동),127.0020351,37.5842573
서울대치과병원,서울특별시 종로구 대학로 101 서울대학교 치과병원 신관1층,126.9990168,37.5797151
서대문역,서울특별시 종로구 통일로 134 (평동),126.9662598,37.5667937
숭례문북창,서울특별시 중구 세종대로12길 12 (남대문로4가),126.9769149,37.5616378
을지로4가역,서울특별시 중구 을지로 170 (을지로4가),126.9972820,37.5660776
동대문두타,서울특별시 중구 장충단로 275 (을지로6가),127.0087831,37.5688912
대한상공회의소R,서울특별시 중구 세종대로 39 (남대문로4가) 1층,126.9737753,37.5607137
국립중앙의료원,서울특별시 중구 을지로 251 (을지로6가),127.0062707,37.5665549
동국대,서울특별시 중구 서애로 1길 11,126.9985981,37.5613426
신세계본점5F,서울특별시 중구 소공로 63 (충무로1가),126.9811087,37.5608909
을지로내외빌딩R,서울특별시 중구 을지로 51 (을지로2가),126.9836985,37.5664963
대우재단빌딩,서울특별시 중구 퇴계로 18 (남대문로5가),126.9751735,37.5565630
동대문공원,서울특별시 중구 장충단로 229 (광희동1가),127.0072391,37.5652211
을지로국제빌딩,서울특별시 중구 남대문로 109 (다동),126.9822586,37.5669868
동대입구역,서울특별시 중구 장충단로 166 (장충동1가),127.0061698,37.5596514
신당역사거리,서울특별시 중구 다산로 258 (흥인동),127.0166374,37.5657465
연세세브란스,서울특별시 중구 통일로 10 (남대문로5가),126.9736575,37.5570913
회현역,서울특별시 중구 퇴계로 72 (회현동) 리더스뷰남산,126.9805573,37.5591477
을지로경기빌딩,서울특별시 중구 남대문로10길 9 (삼각동) 경기빌딩,126.9832338,37.5672092
을지로2가,서울특별시 중구 삼일대로 358 (을지로2가),126.9881038,37.5664890
신세계본점6F,서울특별시 중구 퇴계로 77 (충무로1가),126.9807430,37.5603276
서울중앙우체국,서울특별시 중구 소공로 70 (충무로 1가) 서울 중앙 우체국,126.9821154,37.5615629
한국프레스센터,서울특별시 중구 세종대로 124 (태평로1가),126.9778908,37.5674232
명동중앙로,서울특별시 중구 명동길 60 (명동 2가),126.9857504,37.5637789
약수역,서울특별시 중구 다산로 129 (신당동),127.0107473,37.5554327
중구저동,서울특별시 중구 수표로 34 (저동2가),126.9903646,37.5643849
명동길,서울특별시 중구 명동10길 41,126.9858811,37.5620619
서소문로,서울특별시 중구 서소문로 120 (서소문동) 대한빌딩,126.9746764,37.5629139
신당역,"서울특별시 중구 퇴계로 385, 1층 (흥인동)",127.0143796,37.5654070
명동메트로,서울특별시 중구 명동9가길 14 (을지로1가) 메트로호텔,126.9837467,37.5651466
숭례문,"서울특별시 중구 세종대로 17, 와이즈타워 1층 (남대문로5가)",126.9732806,37.5586371
순화동더샵,"서울특별시 중구 칠패로 27, 1층 (순화동)",126.9719947,37.5599339
대한극장,"서울특별시 중구 퇴계로 212 (필동2가) 1,2층",126.9953587,37.5610797
환구단,서울특별시 중구 소공로 112 (소공동),126.9792265,37.5647589
무교동,서울특별시 중구 무교로 21 (무교동) 코오롱빌딩 1층,126.9787595,37.5678575
문화일보,서울특별시 중구 새문안로 22 (충정로1가) 문화일보,126.9686270,37.5670972
태평로,"서울특별시 중구 세종대로 72, 대영빌딩 1층 (태평로2가)",126.9768118,37.5624824
퍼시픽타워,"서울특별시 중구 세종대로9길 41, 퍼시픽타워 1층 (서소문동)",126.9730165,37.5613584
남산단암,"서울특별시 중구 소월로 10, 단암빌딩 (남대문로5가)",126.9754231,37.5585380
황학캐슬,서울특별시 중구 청계천로 400 (황학동) 롯데캐슬베네치아,127.0211246,37.5707646
을지로삼화타워,서울특별시 중구 을지로5길 16 (을지로2가) 1층,126.9849157,37.5669547
소공로,"서울특별시 중구 남대문로7길 19, 삼영빌딩 1층 일부 (소공동)",126.9807789,37.5637733
서소문배재,서울특별시 중구 서소문로 99 (서소문동),126.9721899,37.5628899
을지로한국빌딩,"서울특별시 중구 을지로 50, 1층 (을지로 2가)",126.9833131,37.5656521
KG타워,서울특별시 중구 통일로 92 (순화동) KG타워,126.9692394,37.5635982
시청,"서울특별시 중구 을지로 19, 삼성화재삼성빌딩 1층 (을지로1가)",126.9799748,37.5663080
충무로역,"서울특별시 중구 퇴계로 197, 충무빌딩 1층 (필동 2가)",126.9939069,37.5614333
명동역,"서울특별시 중구 퇴계로 101, 건물 전체 (충무로 1가)",126.9831157,37.5608681
명동입구,서울특별시 중구 남대문로 68-1 (명동2가),126.9822826,37.5632523
무교로,서울특별시 중구 무교로 15 (무교동),126.9789374,37.5672890
청계크리스탈스퀘어,서울특별시 중구 청계천로 106 (수표동),126.9892933,37.5676319
숭례문SG타워,서울특별시 중구 세종대로 14 (남대문로5가),126.9744151,37.5578385
세종대로,서울특별시 중구 세종대로 135-5 (태평로1가),126.9764359,37.5686041
동대문디자인플라자,서울특별시 중구 을지로 281 (을지로7가) 디자인장터,127.0099323,37.5675466
레스케이프호텔R,서울특별시 중구 퇴계로 67 (회현동1가),126.9795418,37.5596664
별다방,서울특별시 중구 퇴계로 100 (회현동2가),126.9829250,37.5602500
포포인츠명동,서울특별시 중구 삼일대로10길 36 (저동2가),126.9894338,37.5655900
명동남산,서울특별시 중구 퇴계로 132 (남산동3가),126.9864812,37.5607536
명일역,서울특별시 강동구 양재대로 1647 (명일동),127.1437829,37.5525606
강동구청DT,서울특별시 강동구 성내로 32 (성내동),127.1238062,37.5291904
강동암사DT,서울특별시 강동구 고덕로 43 (암사동),127.1300150,37.5551043
굽은다리역,"서울특별시 강동구 양재대로 1568 (명일동, 원일타워)",127.1432253,37.5454223
강동역,"서울특별시 강동구 천호대로 1089 (천호동, 강동 헤르셔)",127.1334297,37.5365922
둔촌동,서울특별시 강동구 양재대로 1303 (성내동) 평원빌딩,127.1339673,37.5227722
천호로데오,서울특별시 강동구 천호대로 1037 (천호동),127.1273553,37.5378393
천호이마트,서울특별시 강동구 천호대로 1015-14 (천호동) 이마트별관,127.1252538,37.5389654
길동역,서울특별시 강동구 양재대로 1487 (길동),127.1400800,37.5387188
상일동,"서울특별시 강동구 상일로10길 36, 1~2층 (상일동)",127.1741318,37.5508328
천호역,"서울특별시 강동구 천호대로 1012, 태승빌딩 (성내동)",127.1242277,37.5381091
명일이마트,서울특별시 강동구 동남로75길 5 (명일동) 명일이마트별관주차장,127.1560171,37.5540095
상일동역,"서울특별시 강동구 고덕로 399 (고덕동, 고덕센트럴푸르지오)",127.1701747,37.5577308
천호사거리,서울특별시 강동구 올림픽로 651 (천호동),127.1233821,37.5397472
강일역,"서울특별시 강동구 고덕로 429 (강일동), 1층",127.1735035,37.5575025
올림픽공원북2문,서울특별시 강동구 강동대로 199 (성내동),127.1287114,37.5242312
천호대로길동,서울특별시 강동구 천호대로 1131 거산 유팰리스,127.1372467,37.5347915
신도림,서울특별시 구로구 경인로 610 (신도림동),126.8839722,37.5054332
구로디지털타워,서울특별시 구로구 디지털로32길 30 (구로동),126.8964929,37.4834351
오류동역,서울특별시 구로구 경인로 216 (오류동),126.8448848,37.4961590
구로디지털로,"서울특별시 구로구 디지털로33길 11, 에이스테크노8차 1층 (구로동)",126.8954779,37.4856729
구로에이스,"서울특별시 구로구 디지털로 285, 에이스트윈타워1차 103호 (구로동)",126.8945184,37.4844927
구로하이엔드,"서울특별시 구로구 디지털로26길 5, 에이스하이엔드타워1차 103호 (구로동)",126.8934794,37.4816106
현대디큐브2F,서울특별시 구로구 경인로 662 (신도림동),126.8884274,37.5083236
구로호텔,"서울특별시 구로구 디지털로32길 72, 구로호텔 1층 (구로동)",126.8988477,37.4831795
현대디큐브B2,서울특별시 구로구 경인로 662 (신도림동),126.8884274,37.5083236
구로고척,서울특별시 구로구 경인로 387 (고척동),126.8631425,37.4970869
구로NC,서울특별시 구로구 구로중앙로 152 (구로동) 구로NC,126.8828000,37.5011324
구로오류DT,서울특별시 구로구 서해안로 2233 (오류동),126.8344888,37.4881418
구로구청,"서울특별시 구로구 가마산로 232 (구로동, 스페스큐브), B101호",126.8867901,37.4938088
고척아이파크,"서울특별시 구로구 경인로43길 49 (고척동, 고척아이파크), 1층 D-101호",126.8577440,37.4992011
답십리역,서울특별시 동대문구 천호대로 263 (답십리동),127.0511357,37.5685076
경희대삼거리,서울특별시 동대문구 회기로 141 (회기동),127.0520424,37.5915721
외대정문,서울특별시 동대문구 이문로 93 (이문동),127.0592314,37.5953819
신설동역,서울특별시 동대문구 왕산로 19 (신설동),127.0255333,37.5767234
회기역사거리,서울특별시 동대문구 이문로 37 (회기동),127.0561285,37.5908164
외대,서울특별시 동대문구 휘경로 12-1 (이문동),127.0614142,37.5957344
장한평역,서울특별시 동대문구 장한로 10 (장안동),127.0655112,37.5623559
경희대,서울특별시 동대문구 경희대로 16-1 (회기동),127.0528766,37.5929057
경동1960,서울특별시 동대문구 고산자로36길 3 (제기동),127.0391429,37.5790378
청량리역사,서울특별시 동대문구 왕산로 214 (전농동),127.0511390,37.5841971
서울숲역,서울특별시 성동구 왕십리로 50 (성수동1가) 1층,127.0449128,37.5418864
금호역,서울특별시 성동구 동호로 99 (금호동4가),127.0153658,37.5480373
뚝섬역,서울특별시 성동구 아차산로 42 (성수동1가),127.0490393,37.5464768
황학사거리,"서울특별시 성동구 왕십리로 410 (하왕십리동, 센트라스)",127.0247865,37.5665508
성수역,서울특별시 성동구 성수이로 94 (성수동2가),127.0569704,37.5432346
상왕십리역,서울특별시 성동구 왕십리로 382 (하왕십리동),127.0280199,37.5651103
왕십리역,서울특별시 성동구 왕십리로 326 (도선동),127.0339281,37.5627619
한양대,"서울특별시 성동구 왕십리로 225 (행당동) 1,2층",127.0421324,37.5571645
엔터식스,서울특별시 성동구 왕십리광장로 17 (행당동),127.0384812,37.5614086
성수이마트,서울특별시 성동구 뚝섬로 379 (성수동2가) 이마트 성수점,127.0534928,37.5399360
신금호역,서울특별시 성동구 금호로 158-1 (금호동1가) 1~5층 전체,127.0202130,37.5549766
왕십리역9번출구,서울특별시 성동구 고산자로 234 (행당동),127.0352721,37.5605386
성수,서울특별시 성동구 아차산로 104 (성수동2가),127.0554581,37.5444425
옥수,서울특별시 성동구 독서당로 202 (옥수동),127.0133515,37.5429959
성수낙낙,서울특별시 성동구 광나루로8길 31 (성수동2가) 성수낙낙 1층 101~107호,127.0664373,37.5472098
효창공원앞역,"서울특별시 용산구 백범로 313 (효창동, 용산 롯데캐슬 센터포레)",126.9635260,37.5400414
서울역서부,서울특별시 용산구 만리재로 202 (서계동),126.9684599,37.5549500
이태원역,서울특별시 용산구 이태원로 188 (이태원동),126.9948197,37.5343166
한강진역R,서울특별시 용산구 이태원로 252 (한남동),127.0011334,37.5371022
용산역써밋R,"서울특별시 용산구 한강대로 69 (한강로2가, 용산푸르지오써밋)",126.9651744,37.5273235
이촌,서울특별시 용산구 이촌로 276 (이촌동),126.9772953,37.5186465
신용산역,"서울특별시 용산구 한강대로 95 (한강로2가, 래미안용산)",126.9668857,37.5290927
용산파크타워,"서울특별시 용산구 서빙고로 67 (용산동5가, 파크타워)",126.9710502,37.5245254
남영동,서울특별시 용산구 한강대로 275 (갈월동),126.9722538,37.5428903
한남동R,서울특별시 용산구 독서당로 94 (한남동),127.0109570,37.5347985
서울타워,서울특별시 용산구 남산공원길 105 (용산동2가) YTN서울타워 1층,126.9878822,37.5510548
서울역동자동,서울특별시 용산구 한강대로 372 (동자동),126.9736404,37.5513775
순천향입구,서울특별시 용산구 대사관로 67 (한남동),127.0056648,37.5334289
숙대,서울특별시 용산구 청파로47길 57 (청파동3가),126.9671095,37.5446229
동빙고,서울특별시 용산구 장문로 12 (동빙고동),126.9918133,37.5289753
숙대입구역,서울특별시 용산구 한강대로 291 (갈월동),126.9719310,37.5442138
용산아이파크몰,서울특별시 용산구 한강대로23길 55,126.9647415,37.5297718
동부이촌동,서울특별시 용산구 이촌로 198 (이촌동),126.9690525,37.5210837
숙명여대정문,서울특별시 용산구 청파로47길 100 (청파동2가) 프라임관B1F(로비층),126.9645778,37.5459469
용산해링턴스퀘어,서울특별시 용산구 서빙고로 17 (한강로3가),126.9678526,37.5257665
경리단길,서울특별시 용산구 회나무로 3 (이태원동),126.9874077,37.5385843
서울역사,서울특별시 용산구 한강대로 405 (동자동) 신-101호,126.9717326,37.5548376
용산리첸시아,"서울특별시 용산구 백범로 341 (원효로1가, 리첸시아 용산)",126.9678941,37.5383556
포포인츠서울역,서울특별시 용산구 한강대로 366 (동자동),126.9729133,37.5511247
용산전자랜드,서울특별시 용산구 청파로 74 (한강로3가),126.9596573,37.5327771
상봉,"서울특별시 중랑구 상봉로 131 (상봉동, 상봉 듀오트리스 주상복합)",127.0922132,37.5975129
중랑역,서울특별시 중랑구 망우로30길 3 (상봉동),127.0747710,37.5930848
중랑구청,서울특별시 중랑구 신내로 72,127.0956685,37.6054065
사가정역,서울특별시 중랑구 면목로 310,127.0879930,37.5796409
상봉역,서울특별시 중랑구 망우로 307 (상봉동),127.0864785,37.5969454
묵동,"서울특별시 중랑구 동일로 952 (묵동, 로프트원 태릉입구역) 1층",127.0768804,37.6153331
양원역,서울특별시 중랑구 양원역로10길 3 (망우동),127.1063598,37.6066537
중화역,서울특별시 중랑구 봉화산로 35,127.0783243,37.6018096
남이섬,경기도 가평군 가평읍 북한강변로 1054 북한강변로 1054,127.5252910,37.8066057
소노캄고양,경기도 고양시 일산동구 태극로 18 (장항동),126.7500310,37.6624195
일산애니골DT,경기도 고양시 일산동구 무궁화로 294 (풍동),126.7928519,37.6744083
동국대일산병원,경기도 고양시 일산동구 동국로 27 (식사동),126.8064233,37.6763969
일산풍동DT,경기도 고양시 일산동구 백마로 475 (풍동),126.8007450,37.6622135
백석중앙로,경기도 고양시 일산동구 강송로 33 (백석동),126.7932556,37.6429789
일산식사,경기도 고양시 일산동구 위시티2로11번길 31 (식사동),126.8121710,37.6779410
풍산이마트,경기도 고양시 일산동구 무궁화로 237 (중산동),126.7871254,37.6738502
백석역DT,"경기도 고양시 일산동구 중앙로 1054, 1층 (백석동)",126.7874236,37.6439947
백석,경기도 고양시 일산동구 중앙로 1059 (백석동),126.7861723,37.6439354
라페스타광장,경기도 고양시 일산동구 중앙로1275번길 38-9 (장항동),126.7701729,37.6596958
일산백마,경기도 고양시 일산동구 일산로 237 (마두동),126.7881041,37.6571188
웨스턴돔B,경기도 고양시 일산동구 정발산로 24 (장항동),126.7721369,37.6557939
마두역,경기도 고양시 일산동구 중앙로 1191 (장항동),126.7767206,37.6529471
일산동구청,경기도 고양시 일산동구 정발산로 38 (장항동),126.7731559,37.6567215
고양대로DT,경기도 고양시 일산동구 고양대로 910 (풍동),126.7961214,37.6776888
일산하늘마을,경기도 고양시 일산동구 중산로 61 (중산동),126.7821738,37.6775600
과천DT,경기도 과천시 중앙로 277 (중앙동),126.9938374,37.4393451
과천이마트,경기도 과천시 별양상가3로 11 이마트 1층(별양동),126.9918723,37.4263042
과천,"경기도 과천시 중앙로 129, 고려빌딩 1층 (중앙동)",126.9909779,37.4283170
광명하안대로,경기도 광명시 범안로 1036 (하안동),126.8783564,37.4614473
철산역,경기도 광명시 철산로 15 (철산동),126.8677139,37.4764576
광명역,"경기도 광명시 양지로 16 (일직동, 광명역써밋플레이스)",126.8804440,37.4166790
광명소하DT,경기도 광명시 오리로 363 (소하동),126.8792090,37.4348886
광명소하,경기도 광명시 금하로 464 (소하동),126.8840403,37.4484547
광명사거리역,경기도 광명시 광명로 907 (광명동),126.8543332,37.4798885
철산로데오,경기도 광명시 디지털로 17 (철산1동) 가림빌딩,126.8693732,37.4740164
광명하안,경기도 광명시 범안로 1060 (하안동),126.8806620,37.4626043
광명철산,경기도 광명시 오리로 865 (철산동),126.8658275,37.4752559
광명AK,"경기도 광명시 양지로 17 (일직동), 1층 일부",126.8828897,37.4186807
광명롯데몰,경기도 광명시 일직로 17 (일직동) 롯데아울렛 1층,126.8827677,37.4243049
경기광주쌍령DT,경기도 광주시 경충대로 1445 (쌍령동),127.2732589,37.3987589
경기광주송정DT,경기도 광주시 경안천로 118 (송정동),127.2725770,37.4162824
경기광주,경기도 광주시 광주대로 35 (경안동),127.2602100,37.4097399
경기광주초월역DT,경기도 광주시 초월읍 경충대로 1084,127.2982453,37.3744166
곤지암IC DT,경기도 광주시 곤지암읍 경충대로 765 경충대로 765,127.3252420,37.3556487
구리갈매역,"경기도 구리시 경춘북로 252 (갈매동, 갈매역아이파크)",127.1170208,37.6346002
구리돌다리,"경기도 구리시 검배로 5, 우진빌딩 (수택동)",127.1419579,37.6006238
구리장자호수,경기도 구리시 장자대로 84 (수택동),127.1398242,37.5872911
구리인창DT,경기도 구리시 건원대로 53 (인창동),127.1392866,37.6056603
구리수택,"경기도 구리시 체육관로 44 (수택동)1-2층 , 옥외공간",127.1381685,37.5884771
구리토평DT,경기도 구리시 벌말로 88 (토평동),127.1473350,37.5845880
산본사거리,경기도 군포시 고산로701,126.9358140,37.3724584
산본,경기도 군포시 산본로343번길 9 (산본동) 1층,126.9317701,37.3606163
산본역,"경기도 군포시 번영로 497, 금화프라자 1층 (산본동)",126.9322945,37.3583214
산본동,"경기도 군포시 산본로 398, 태주빌딩 2층",126.9294490,37.3655003
금정AK,"경기도 군포시 엘에스로 143 (금정동, 힐스테이트 금정역), AK플라자 4층 일부",126.9449233,37.3728503
산본역서부사거리,경기도 군포시 번영로 485 (산본동) 롯데피트인 산본 1층 일부,126.9306320,37.3578642
다산지금,경기도 남양주시 다산지금로 139 (다산동),127.1743293,37.6005612
남양주연평DT,경기도 남양주시 진접읍 해밀예당1로 27,127.1855341,37.7115529
다산진건,경기도 남양주시 다산중앙로123번길 22-26 (다산동) 123호~128호,127.1524234,37.6248697
도농역,경기도 남양주시 미금로 239 (다산동),127.1646204,37.6110519
남양주진접DT,경기도 남양주시 진접읍 금강로 1477,127.1902542,37.7228598
리버사이드팔당DT,경기도 남양주시 와부읍 경강로 772,127.2283933,37.5671177
별내불암로,경기도 남양주시 별내5로5번길 15 (별내동),127.1124510,37.6504150
평내DT,경기도 남양주시 경춘로 1269,127.2347191,37.6477197
별내,경기도 남양주시 별내중앙로 64 1-2층,127.1234134,37.6479963
평내호평역,"경기도 남양주시 늘을1로16번길 25, 성보빌딩 (호평동)",127.2428881,37.6540709
더북한강R,경기도 남양주시 화도읍 북한강로 1098,127.3420060,37.6124574
남양주화도DT,경기도 남양주시 화도읍 수레로 1137 1~2층,127.3032086,37.6390480
다산DT,경기도 남양주시 다산중앙로 19번길5 (다산동),127.1548677,37.6147397
남양주묵현DT,경기도 남양주시 화도읍 비룡로 122,127.3027250,37.6632238
별내별가람역,경기도 남양주시 덕송2로 62 (별내동),127.1172253,37.6679338
남양주삼패,경기도 남양주시 경강로 384 (삼패동)1-2층 옥탑,127.1995841,37.5918531
판교유스페이스,경기도 성남시 분당구 대왕판교로 660 (삼평동),127.1068530,37.4004763
판교알파돔타워,경기도 성남시 분당구 판교역로 152 (백현동),127.1103138,37.3942381
판교아비뉴프랑R,"경기도 성남시 분당구 동판교로177번길 25 (삼평동, 판교 호반 써밋 플레이스)",127.1135578,37.3977288
야탑터미널,경기도 성남시 분당구 성남대로925번길 16 (야탑동),127.1272613,37.4131252
분당이매,경기도 성남시 분당구 이매로 15 (이매동),127.1224055,37.3949880
분당율동공원,경기도 성남시 분당구 새마을로175번길 4 (율동),127.1499995,37.3839344
정자동,경기도 성남시 분당구 정자로 82 (정자동),127.1140652,37.3631843
판교알파돔시티,"경기도 성남시 분당구 판교역로 145 타워2동 1층, 138~142호 (백현동530, 알파리움)",127.1085871,37.3940495
서판교,경기도 성남시 분당구 운중로 132 (운중동),127.0777546,37.3913077
판교브릿지타워,경기도 성남시 분당구 판교로 227번길 6 (삼평동),127.0992412,37.4030349
판교봇들마을,경기도 성남시 분당구 판교로 372 (삼평동),127.1156875,37.4037132
판교역로,경기도 성남시 분당구 판교역로 192번길 14 (삼평동),127.1114194,37.3973932
서현,경기도 성남시 분당구 황새울로360번길 19 (서현동) 금화빌딩,127.1259558,37.3858796
미금역사거리,경기도 성남시 분당구 성남대로 151 (구미동),127.1083133,37.3493317
수내로,경기도 성남시 분당구 수내로46번길 12 (수내동) 코아빌딩,127.1165965,37.3804047
정자역,경기도 성남시 분당구 성남대로343번길 12-2 (정자동),127.1067507,37.3668296
분당구청,경기도 성남시 분당구 분당로 43 (서현동),127.1202711,37.3840714
뉴코아야탑,"경기도 성남시 분당구 야탑로81번길 11, 뉴코아 야탑점 아울렛 1층 (야탑동)",127.1274912,37.4107024
미금역,경기도 성남시 분당구 돌마로 43 (금곡동) 메디파크빌딩,127.1066794,37.3503551
수내,"경기도 성남시 분당구 황새울로 234, 분당트라팰리스 (수내동)",127.1142363,37.3795330
정자상떼뷰,"경기도 성남시 분당구 정자일로213번길 18 (정자동, 성원상떼뷰리젠시)",127.1055794,37.3703254
서현미래에셋,"경기도 성남시 분당구 황새울로359번길 11, 미래에셋빌딩 1층 (서현동)",127.1232809,37.3879969
야탑글라스,경기도 성남시 분당구 성남대로916번길 11 (야탑동),127.1298492,37.4108629
정자,"경기도 성남시 분당구 정자일로 166, SPG센터 (정자동)",127.1062962,37.3648844
분당서울대병원4,"경기도 성남시 분당구 구미로173번길 82, 분당서울대학교병원 신관 4층 (구미동)",127.1232509,37.3519807
분당서울대병원1,"경기도 성남시 분당구 구미로173번길 82, 분당서울대학교병원 신관 1층 (구미동)",127.1232509,37.3519807
서현N타운,경기도 성남시 분당구 황새울로335번길 5 (서현동),127.1216975,37.3860493
서현역,"경기도 성남시 분당구 서현로210번길 20, 1층 (서현동)",127.1240452,37.3858444
오리역,"경기도 성남시 분당구 성남대로 32, 1층 (구미동)",127.1093949,37.3386555
분당정자,"경기도 성남시 분당구 성남대로 393, 두산위브파빌리온 1층 (정자동)",127.1071715,37.3716373
수내역,"경기도 성남시 분당구 백현로101번길 30, 1-2층 (수내동)",127.1138174,37.3777579
정자아데나,경기도 성남시 분당구 성남대로 275 (정자동),127.1073241,37.3608829
분당이마트,경기도 성남시 분당구 불정로 134 (정자동),127.1197577,37.3587972
판교H스퀘어,"경기도 성남시 분당구 판교역로 231, 에이치스퀘어 (삼평동)",127.1086567,37.4013231
오리역삼거리,경기도 성남시 분당구 성남대로 45 (구미동),127.1084631,37.3400099
판교HIPEX,"경기도 성남시 분당구 판교역로 230, 판교 삼환 HIPEX (삼평동)",127.1105085,37.4012225
네이버1784,경기도 성남시 분당구 정자일로 95 (정자동) 네이버1784 2층,127.1052332,37.3588754
미금역2001아울렛,경기도 성남시 분당구 미금일로154번길 20 (구미동),127.1074652,37.3490412
분당서현역AK R,경기도 성남시 분당구 황새울로360번길 42 (서현동),127.1236884,37.3850444
분당궁내DT,경기도 성남시 분당구 대왕판교로 302 (궁내동),127.1021507,37.3706079
야탑역사거리,경기도 성남시 분당구 야탑로 102 (야탑동),127.1301328,37.4095960
남한산성입구역,경기도 성남시 중원구 산성대로426번길 2 (금광동),127.1594424,37.4496660
단대오거리역,경기도 성남시 중원구 산성대로 340-1 (중앙동),127.1545917,37.4433741
성남모란DT,경기도 성남시 중원구 둔촌대로 131 (성남동),127.1334418,37.4292298
수원금곡,경기도 수원시 권선구 금곡로 219 (금곡동),126.9540792,37.2750009
수원세류DT,경기도 수원시 권선구 권선로544번길 1 (세류동),127.0112490,37.2627895
수원호매실,"경기도 수원시 권선구 서수원로577번길 305 (금곡동, 수원모아미래도센트럴타운2단지)",126.9404313,37.2759866
수원권선DT,경기도 수원시 권선구 매송고색로 543 (오목천동),126.9640307,37.2466757
수원권선,경기도 수원시 권선구 동수원로177번길 40 (권선동),127.0304436,37.2466762
수원이마트,경기도 수원시 권선구 경수대로 270 (권선동) 2층,127.0199600,37.2513342
수원세류역DT,경기도 수원시 권선구 경수대로 185 (세류동),127.0171671,37.2437003
수원롯데백화점2F,경기도 수원시 권선구 세화로 134 (서둔동),126.9972390,37.2642663
수원연무DT,경기도 수원시 장안구 창룡대로 171 (연무동),127.0287190,37.2922053
북수원IC DT,경기도 수원시 장안구 경수대로 1038 (파장동),126.9986053,37.3077518
수원천천,경기도 수원시 장안구 덕영대로535번길 46 (천천동),126.9826899,37.2973076
수원성균관대,"경기도 수원시 장안구 서부로 2131, 1층 4,5,6호 2층1,2호 (율전동)",126.9715828,37.2989707
수원정자사거리DT,경기도 수원시 장안구 수성로 291 (정자동),127.0040061,37.2912331
수원종합운동장,경기도 수원시 장안구 송원로 71 (송죽동),127.0088023,37.3013172
수원경수인계DT,경기도 수원시 팔달구 경수대로 499 (인계동),127.0275702,37.2705510
수원KBS DT,경기도 수원시 팔달구 권광로 265 (인계동),127.0351938,37.2710968
수원인계DT,경기도 수원시 팔달구 인계로94번길 3 (인계동),127.0279477,37.2679479
수원이비스,경기도 수원시 팔달구 권광로 132 (인계동),127.0313219,37.2592852
수원매산,경기도 수원시 팔달구 매산로 11 (매산로1가),127.0027269,37.2674516
동수원DT,경기도 수원시 팔달구 중부대로 161 (우만동),127.0339150,37.2780694
수원인계,경기도 수원시 팔달구 권광로 199 (인계동),127.0329070,37.2655579
아주대,경기도 수원시 팔달구 월드컵로 205 (우만동),127.0434040,37.2796738
수원나혜석거리,경기도 수원시 팔달구 권광로188번길 17 (인계동),127.0341649,37.2642597
수원역AK R,경기도 수원시 팔달구 덕영대로 924 (매산로1가),127.0002404,37.2656796
시흥대야DT,경기도 시흥시 뱀내장터로 27 (대야동),126.7877212,37.4417028
배곧아브뉴프랑,경기도 시흥시 서울대학로278번길 34 (정왕동),126.7289263,37.3682148
시흥대야동,경기도 시흥시 비둘기공원7길 51 (대야동),126.7918983,37.4416552
배곧신도시,경기도 시흥시 서울대학로278번길 43-13 (정왕동),126.7301880,37.3692355
시흥대야,경기도 시흥시 비둘기공원로 10 (대야동),126.7907650,37.4439703
시흥P.아울렛 3F,경기도 시흥시 서해안로 699 (정왕동),126.7369853,37.3796756
시흥P.아울렛 1F,경기도 시흥시 서해안로 699 (정왕동),126.7369853,37.3796756
시화로데오,경기도 시흥시 중심상가2길 20-5 (정왕동),126.7373364,37.3446797
시흥월곶,경기도 시흥시 월곶중앙로58번길 5-6 (월곶동),126.7388711,37.3894804
시흥장현,경기도 시흥시 황고개로 530 (장곡동) 센터프라자,126.7892420,37.3779903
시흥능곡역,경기도 시흥시 장현능곡로 155 (능곡동),126.8073771,37.3710435
시흥목감DT,경기도 시흥시 동서로 950 (조남동),126.8501079,37.3779250
시흥은계,경기도 시흥시 은계번영길 9 (은행동),126.8016257,37.4374767
안산고잔센트럴타워,경기도 안산시 단원구 고잔로 72 (고잔동),126.8342456,37.3189669
안산상공회의소,경기도 안산시 단원구 적금로 120 (고잔동),126.8265040,37.3188550
고잔이마트,경기도 안산시 단원구 원포공원1로 46 (초지동) 이마트,126.8129225,37.3031619
안산문화광장,"경기도 안산시 단원구 광덕대로 154, ,771-4 로데오타운1층 (고잔동)",126.8308998,37.3101689
안산중앙,"경기도 안산시 단원구 고잔로 102, 스타타워 1층 (고잔동)",126.8376242,37.3187365
안산중앙역,경기도 안산시 단원구 중앙대로 907 (고잔동),126.8377275,37.3171198
안산트레이더스,경기도 안산시 단원구 중앙대로 397 (신길동),126.7850078,37.3311974
안성석정DT,경기도 안성시 중앙로 308 (석정동),127.2620804,37.0103906
안성공도DT,경기도 안성시 공도읍 서동대로 4489,127.2007779,37.0094160
안성서동대로DT,경기도 안성시 공도읍 서동대로 4314 서동대로 4314,127.1820895,37.0048168
안성계동DT,경기도 안성시 안성맞춤대로 805 (계동),127.2678384,36.9860394
스타필드안성R,경기도 안성시 공도읍 서동대로 3930-39,127.1473035,36.9945212
호계지식산업센터,경기도 안양시 동안구 엘에스로 122 (호계동) 118~123호,126.9488677,37.3728650
평촌역DT,경기도 안양시 동안구 시민대로 373 (관양동),126.9716472,37.3966866
안양범계,경기도 안양시 동안구 시민대로 206 (호계동),126.9537647,37.3917200
안양운동장사거리DT,경기도 안양시 동안구 관악대로 234 (비산동),126.9492438,37.4011960
범계역,경기도 안양시 동안구 시민대로 180 (호계동),126.9500253,37.3900493
안양호계DT,경기도 안양시 동안구 엘에스로 23-8 (호계동),126.9559899,37.3664884
평촌호계,경기도 안양시 동안구 평촌대로 123 (호계동),126.9596640,37.3830078
평촌로데오,경기도 안양시 동안구 관평로 182 (관양동),126.9607138,37.3929744
평촌역사거리,경기도 안양시 동안구 시민대로 311 금강스마트 빌딩 1층(관양동1746),126.9646697,37.3960855
안양비산DT,경기도 안양시 동안구 경수대로 821 (비산동),126.9429667,37.3926352
평촌아크로,"경기도 안양시 동안구 시민대로 230, 평촌아크로타워상가동 2층 8호 (관양동)",126.9565208,37.3923016
범계로데오,경기도 안양시 동안구 평촌대로 223 (호계동),126.9551123,37.3914648
인덕원역,"경기도 안양시 동안구 흥안대로 519, 아이퍼스트타워 1~2층 (관양동)",126.9761701,37.4003256
안양덕현DT,경기도 안양시 동안구 흥안대로 139 (호계동),126.9602485,37.3712701
안양이마트,경기도 안양시 동안구 관악대로 104 (비산동),126.9353531,37.3983756
안양역R,경기도 안양시 만안구 만안로 232 (안양동) 안양민자역사 1층 001호,126.9230027,37.4014350
명학역,"경기도 안양시 만안구 안양로 96 128,129,130,132,133,134,135,136호",126.9347370,37.3839374
안양역,경기도 안양시 만안구 장내로 149번길 (안양동)53,126.9238873,37.3984304
안양석수DT,경기도 안양시 만안구 경수대로 1397 (석수동),126.9035363,37.4310798
안양일번가,경기도 안양시 만안구 안양로292번길 36 (안양동),126.9237143,37.3991934
양주옥정타운,경기도 양주시 회천남로 76 (옥정동),127.0940531,37.8185530
양주송추DT,경기도 양주시 장흥면 호국로 528,126.9731303,37.7175921
양주덕정역DT,경기도 양주시 독바위로 35 (덕정동),127.0629843,37.8382554
양주고읍DT,경기도 양주시 고덕로351 (고읍동),127.0793593,37.8034923
양주광사DT,경기도 양주시 부흥로 1872 (광사동),127.0727917,37.7907383
양주고읍,경기도 양주시 고읍남로 20 (광사동),127.0791293,37.7946720
양주옥정공원,경기도 양주시 옥정동로7길 30 (옥정동),127.0976145,37.8212176
양주회정DT,경기도 양주시 평화로 1687 (회정동),127.0547269,37.8395815
북오산IC DT,경기도 오산시 문시로 109-2 (외삼미동),127.0588341,37.1897572
오산세교,경기도 오산시 수청로 193 (금암동),127.0455185,37.1766517
오산갈곶DT,"경기도 오산시 경기대로 50, B동 (갈곶동)",127.0712928,37.1290071
오산IC DT,경기도 오산시 원동로 74 (원동),127.0768656,37.1423186
오산시청,경기도 오산시 운천로 61,127.0743268,37.1483274
오산원동DT,경기도 오산시 경기대로 218 (원동),127.0738764,37.1441811
서동탄DT,경기도 오산시 외삼미로 162-48 (외삼미동),127.0649712,37.1973211
오산수청DT,경기도 오산시 경기대로 445 (수청동),127.0666866,37.1629642
용인세브란스병원,경기도 용인시 기흥구 동백죽전대로 363 (중동),127.1485144,37.2708050
용인상하DT,경기도 용인시 기흥구 중부대로 771 (상하동),127.1423107,37.2596719
용인언남,경기도 용인시 기흥구 구성로 120 (언남동),127.1220393,37.2925921
기흥역AK R,"경기도 용인시 기흥구 기흥역로 63 (구갈동, 기흥역 힐스테이트)",127.1179654,37.2747434
용인고매동,경기도 용인시 기흥구 신고매로 59 (고매동),127.1142401,37.2235019
용인보라DT,경기도 용인시 기흥구 용구대로 1877 (보라동),127.1043731,37.2555834
용인동백DT,경기도 용인시 기흥구 어정로 102 (상하동),127.1412400,37.2745902
용인마북DT,경기도 용인시 기흥구 용구대로 2330,127.1103500,37.2946960
용인기흥구청,경기도 용인시 기흥구 구갈로 71-18 (신갈동),127.1104341,37.2817419
수원IC DT,경기도 용인시 기흥구 중부대로 56,127.0748457,37.2671149
용인보정,"경기도 용인시 기흥구 죽전로 20, 죽전누리에뜰상가 (보정동)",127.1107808,37.3199559
구성트레이더스,경기도 용인시 기흥구 용구대로 2457 (보정동),127.1046502,37.3039754
강남대,"경기도 용인시 기흥구 강남로 3, 강남&플러스 1층(구갈동)",127.1261538,37.2710359
용인흥덕DT,경기도 용인시 기흥구 흥덕1로 85 (영덕동),127.0717907,37.2748512
기흥테라타워,"경기도 용인시 기흥구 서천로201번길 11 (농서동) 125, 126, 127, 128호",127.0718813,37.2313712
용인보정DT,경기도 용인시 기흥구 용구대로2469번길 165 (보정동),127.1041959,37.3214913
한국민속촌DT,경기도 용인시 기흥구 사은로 110 (보라동),127.1168393,37.2558838
동백이마트,경기도 용인시 기흥구 동백죽전대로 444 (중동),127.1515224,37.2779500
용인김량장DT,경기도 용인시 처인구 백옥대로 1174 (김량장동),127.2105630,37.2395814
용인에버랜드,경기도 용인시 처인구 포곡읍 에버랜드로 199,127.2013221,37.2933272
용인시청DT,경기도 용인시 처인구 중부대로 1130,127.1709876,37.2403564
용인처인구청,경기도 용인시 처인구 금령로 60 (김량장동),127.2030496,37.2345882
용인마평DT,경기도 용인시 처인구 금령로 188 (마평동),127.2167810,37.2335839
용인역북,경기도 용인시 처인구 명지로 41 (역북동),127.1888376,37.2322338
의왕청계DT,경기도 의왕시 안양판교로 246 (청계동),126.9983783,37.3884116
의왕포일,경기도 의왕시 안양판교로 89 (포일동),126.9843968,37.3961532
의왕내손,경기도 의왕시 내손중앙로 4 (내손동) 벨포레스퀘어 G111~116호,126.9768623,37.3890791
의왕롯데몰,"경기도 의왕시 바라산로 1 (학의동), GF층 일부",127.0095721,37.3759768
의정부예술의전당DT,경기도 의정부시 경의로 31 (의정부동),127.0387730,37.7330691
의정부신곡DT,경기도 의정부시 회룡로 269 (신곡동),127.0639871,37.7268720
의정부용현DT,경기도 의정부시 시민로 468 (용현동),127.0842320,37.7303731
의정부공원,경기도 의정부시 평화로 540 (의정부동),127.0477801,37.7400760
의정부민락,경기도 의정부시 천보로 68 (민락동),127.0941170,37.7454532
의정부회룡역DT,경기도 의정부시 평화로 341 (호원동),127.0476083,37.7223947
의정부녹양DT,경기도 의정부시 비우로 119 (가능동),127.0402654,37.7585634
의정부금오,"경기도 의정부시 청사로48번길 7, 대송프라자 (금오동)",127.0704935,37.7529260
신세계의정부2F,"경기도 의정부시 평화로 525, 신세계백화점 2층 (의정부동)",127.0458795,37.7379901
신세계의정부6F,"경기도 의정부시 평화로 525, 신세계백화점 6층 (의정부동)",127.0458795,37.7379901
의정부송산역DT,경기도 의정부시 충의로 95 (용현동),127.0856625,37.7401530
의정부민락타운,경기도 의정부시 오목로 196 (민락동),127.0990154,37.7443582
의정부장암DT,경기도 의정부시 동일로 114 (장암동),127.0546327,37.6992110
의정부이마트,경기도 의정부시 민락로 210 (민락동),127.1023779,37.7431936
이천증포DT,경기도 이천시 이섭대천로 1445 (증포동),127.4577612,37.2964092
이천사음DT,경기도 이천시 경충대로 3045 (사음동),127.4080114,37.2990425
이천하이닉스,"경기도 이천시 부발읍 경충대로 2100 외 101호, 102호, 201호",127.4899266,37.2525338
이천터미널,경기도 이천시 중리천로 84 (중리동),127.4463698,37.2782125
포천DT,경기도 포천시 호국로 925 (선단동),127.1618142,37.8484262
포천호국로DT,경기도 포천시 소흘읍 호국로 246,127.1272781,37.7960595
하남미사DT,경기도 하남시 미사강변남로 35 (망월동),127.1857828,37.5599727
하남황산사거리,경기도 하남시 조정대로 65 (풍산동),127.1863428,37.5508440
스타필드위례1FR,경기도 하남시 위례대로 200 (학암동),127.1484041,37.4801357
미사역효성,경기도 하남시 아리수로 570 (망월동),127.1905133,37.5669532
하남덕풍,경기도 하남시 덕풍동로 123 (덕풍동),127.2091745,37.5522472
하남미사,경기도 하남시 미사강변북로30번길 130 (망월동),127.1833258,37.5696314
스타필드하남1F(티바나),경기도 하남시 미사대로 750 (신장동),127.2238404,37.5454628
신세계하남2F,경기도 하남시 미사대로 750 (신장동),127.2238404,37.5454628
스타필드하남2FR,경기도 하남시 미사대로 750 (신장동),127.2238404,37.5454628
하남신장,경기도 하남시 신장로 130,127.2039894,37.5383850
하남시청,경기도 하남시 대청로 34 (신장동),127.2159846,37.5405247
하남시청역,경기도 하남시 하남대로 808 (신장동),127.2079828,37.5414365
하남풍산역,경기도 하남시 덕풍서로 80 (덕풍동) 빌리브하남 101~106호,127.2059659,37.5535491
하남감일,"경기도 하남시 감일백제로 169 (감이동) 현대타워, 1층 105~111호",127.1549129,37.5073264
미사역그랑파사쥬,경기도 하남시 미사강변동로 95 (망월동) 미사역 그랑파사쥬 1층 1056~1059호,127.1917417,37.5637312
미사역파라곤스퀘어,"경기도 하남시 미사강변동로 100 (망월동), 미사역 파라곤스퀘어 1층 1011~1016호",127.1942671,37.5651612
화성시청,경기도 화성시 남양읍 시청로 113,126.8260782,37.2008885
화성봉담,경기도 화성시 봉담읍 동화길 51,126.9554909,37.2190315
화성향남,경기도 화성시 향남읍 발안로 111,126.9227702,37.1316848
동탄카림R,"경기도 화성시 동탄대로시범길 134 (청계동, 시범 반도유보라 아이비파크4.0)",127.1142338,37.1992157
동탄능동DT,경기도 화성시 동탄지성로 201 (능동),127.0537435,37.2118505
동탄역,경기도 화성시 동탄대로 495 (오산동),127.0982597,37.1979690
화성병점DT,경기도 화성시 효행로 1015 (진안동),127.0382750,37.2127089
동탄영천,경기도 화성시 동탄순환대로 692 (영천동),127.1114156,37.2067883
신영통DT,경기도 화성시 영통로 43 (반월동),127.0629670,37.2343812
동탄센트럴파크,경기도 화성시 동탄지성로 104 센트럴파티오,127.0638816,37.2083426
동탄,"경기도 화성시 메타폴리스로 54 (반송동, 동탄파라곤II) 1층",127.0732140,37.2016236
동탄광장,"경기도 화성시 동탄지성로 17, 풍성 위버폴리스 (반송동)",127.0717648,37.2045705
동탄이마트,"경기도 화성시 동탄중앙로 376, 동탄이마트 1층 (석우동)",127.0797973,37.2143367
동탄라크몽,경기도 화성시 동탄대로5길 21 (송동) 라크몽,127.1055944,37.1669449
화성남양DT,경기도 화성시 남양읍 시청로32번길 6,126.8191003,37.2071357
화성봉담DT,경기도 화성시 효행로 219 (기안동),126.9715746,37.2283404
동탄목동,경기도 화성시 동탄순환대로20길 124 (목동),127.1246944,37.1826526
화성반월DT,경기도 화성시 효행로 1241 (반월동),127.0579287,37.2201573
동탄트레이더스,경기도 화성시 동탄대로 451 (오산동),127.0971496,37.1936737
화성향남DT,경기도 화성시 향남읍 삼천병마로 213,126.9099996,37.1319476
송산그린시티,경기도 화성시 수노을중앙로 136 (새솔동),126.8182138,37.2847159
동탄타임테라스,"경기도 화성시 동탄중앙로 220 (반송동, 메타폴리스)",127.0683149,37.2051566
동탄IX타워,경기도 화성시 동탄첨단산업1로 27 (영천동) 동탄금강펜테리움IX타워 M8~M11호,127.0895601,37.2109757
동탄역롯데R,경기도 화성시 동탄역로 160 롯데백화점 동탄점,127.0979228,37.2006732
화성안녕DT,경기도 화성시 효행로 751 (안녕동),127.0129548,37.2026035
동탄디엠시티,"경기도 화성시 동탄대로 636-14 (영천동, 동탄역 대방디엠시티 더 센텀)",127.1000953,37.2101315
화성향남2지구,"경기도 화성시 향남읍 발안양감로 187 발안양감로 187 센트럴프라자1동 108호,204호",126.9109266,37.1163958
동탄호수공원,경기도 화성시 동탄대로 181 (송동),127.1048679,37.1713447
삼송역,경기도 고양시 덕양구 동송로 70 (삼송동),126.8961278,37.6526698
원흥역,경기도 고양시 덕양구 원흥5로 25 (원흥동),126.8765868,37.6490839
스타필드고양3F(티바나),경기도 고양시 덕양구 고양대로 1955 (동산동),126.8947780,37.6469771
스타필드고양1FR,경기도 고양시 덕양구 고양대로 1955 (동산동),126.8947780,37.6469771
고양삼송,경기도 고양시 덕양구 신원동 628-2,126.8912349,37.6637119
고양DT,경기도 고양시 덕양구 호국로 1775 (고양동),126.9053926,37.7095563
행신역,경기도 고양시 덕양구 충장로 14 (행신동),126.8344702,37.6140489
원당DT,경기도 고양시 덕양구 호국로 811 (주교동),126.8376458,37.6582022
화정,경기도 고양시 덕양구 화신로272번길 57 (화정동),126.8314869,37.6335151
화정역,경기도 고양시 덕양구 화신로260번길 57 (화정동),126.8327834,37.6335929
고양행신,경기도 고양시 덕양구 충장로 126 (행신동),126.8343319,37.6237787
고양원흥DT,경기도 고양시 덕양구 서오릉로663번길 8 (원흥동),126.8693124,37.6368365
고양향동,경기도 고양시 덕양구 꽃마을로 4 (향동동),126.8924137,37.5989344
지축역,경기도 고양시 덕양구 지축로 56 (지축동),126.9143221,37.6497835
화정호국로,경기도 고양시 덕양구 화수로14번길 72 (화정동),126.8296109,37.6417753
신흥역,경기도 성남시 수정구 산성대로 267 (신흥동),127.1464467,37.4413240
성남위례,경기도 성남시 수정구 위례광장로 104 (창곡동),127.1412642,37.4730526
성남이마트,경기도 성남시 수정구 수정로 201 (태평1동) 신세계쉐덴,127.1414110,37.4442863
판교아이스퀘어,경기도 성남시 수정구 창업로 18(시흥동),127.0983341,37.4134038
성남모란삼성프라자,경기도 성남시 수정구 산성대로 81 (수진동),127.1279066,37.4337271
남위례역,경기도 성남시 수정구 위례광장로 9-9 (창곡동),127.1411484,37.4644861
여주DT,경기도 여주시 세종로 358 (점봉동)_1,127.6384795,37.2660936
여주P.아울렛입구,경기도 여주시 명품로 360 2004호 (상거동),127.6122784,37.2458827
여주P.아울렛,경기도 여주시 명품로 360 2400호 (상거동),127.6122784,37.2458827
여주자유CC,경기도 여주시 가남읍 자유그린길 69,127.5713618,37.2086853
평택비전,경기도 평택시 비전5로 20-24 (비전동),127.1141665,36.9988747
평택서정DT,경기도 평택시 경기대로 1353 (서정동),127.0635406,37.0659835
평택안중DT,경기도 평택시 안중읍 서동대로 1459,126.9133932,36.9908690
평택로데오,경기도 평택시 중앙2로 13 (평택동),127.0886955,36.9919135
평택AK플라자,경기도 평택시 평택로 51 (평택동) 평택역,127.0846944,36.9909191
평택송탄,경기도 평택시 관광특구로 38 (서정동),127.0629415,37.0664367
평택이충DT,경기도 평택시 청원로 1388 (이충동),127.0771132,37.0519108
평택죽백DT,경기도 평택시 만세로 1707 (죽백동),127.1134612,37.0138066
평택청북DT,경기도 평택시 청북읍 안청로2길 86,126.9149563,37.0201663
평택대DT,경기도 평택시 서동대로 3847 (용이동),127.1346409,36.9933977
평택이마트,경기도 평택시 영신로 29 (지제동),127.0755819,37.0210908
평택세교DT,경기도 평택시 경기대로 625 (세교동),127.0787677,37.0073926
주엽강선,"경기도 고양시 일산서구 중앙로 1371 (주엽동, 강선마을13단지아파트)",126.7659773,37.6665669
일산가로수길R,경기도 고양시 일산서구 주엽로 80 (대화동),126.7564181,37.6660671
일산가구단지,경기도 고양시 일산서구 하이파크2로 67 (덕이동),126.7567012,37.6995607
일산덕이DT,경기도 고양시 일산서구 탄중로 106 (덕이동),126.7569713,37.6919155
일산후곡,경기도 고양시 일산서구 일산로 541 (일산동),126.7677033,37.6774615
킨텍스이마트,경기도 고양시 일산서구 킨텍스로 171,126.7441865,37.6616152
일산탄현제니스,경기도 고양시 일산서구 일현로 97-11 (일산위브더제니스스퀘어1동147~151),126.7628568,37.6940172
대화역,"경기도 고양시 일산서구 중앙로 1559, 시티타워 1~2층 (대화동)",126.7482045,37.6754180
일산주엽,"경기도 고양시 일산서구 중앙로 1420, 1층 (주엽동)",126.7627026,37.6699191
현대킨텍스,경기도 고양시 일산서구 호수로 817 (대화동),126.7511979,37.6682829
문촌사거리,경기도 고양시 일산서구 중앙로 1470 (주엽동),126.7576588,37.6726643
일산탄현동,경기도 고양시 일산서구 일현로 91 (탄현동),126.7645205,37.6952188
풍무역DT,경기도 김포시 김포대로 657 (풍무동),126.7374953,37.6103628
풍무사거리DT,경기도 김포시 풍무로 137,126.7227851,37.6078367
김포아이앤씨,경기도 김포시 태장로 779 (장기동),126.6806254,37.6388113
김포구래,"경기도 김포시 김포한강4로 487 (구래동, 한강신도시 반도유보라 4차)",126.6300872,37.6463001
김포장기커낼,"경기도 김포시 김포한강2로 41 (장기동, E편한세상 캐널시티)",126.6777227,37.6404890
김포감정DT,경기도 김포시 중봉로 27 (감정동),126.6964544,37.6248643
김포운양,경기도 김포시 김포한강11로 288-32,126.6841735,37.6543052
김포이마트,경기도 김포시 김포한강7로 71,126.6283154,37.6443183
김포풍무DT,경기도 김포시 풍무로 45 (풍무동),126.7205154,37.5999683
김포시청,경기도 김포시 사우중로 35 (사우동),126.7179103,37.6184340
김포장기,"경기도 김포시 김포한강4로 117, 홍우프라자 102~105호 (장기동)",126.6679920,37.6441798
김포현대아울렛3층,경기도 김포시 고촌읍 아라육로152번길 100,126.7860080,37.5969280
김포구래DT,경기도 김포시 양촌읍 봉수대로 1871,126.6277092,37.6348205
김포석모DT,"경기도 김포시 양촌읍 김포한강4로301 1,2층",126.6498996,37.6511242
김포걸포,"경기도 김포시 걸포2로 83 (걸포동, 한강메트로자이1단지)",126.7010504,37.6331164
부천상동역,경기도 부천시 길주로 105 (상동),126.7541072,37.5063943
스타필드부천,경기도 부천시 옥길로 1 (옥길동) 1195호,126.8139133,37.4614757
부천옥길,경기도 부천시 옥길로 118 (옥길동),126.8229134,37.4673087
부천심곡DT,경기도 부천시 부천로 97 (심곡동),126.7844000,37.4929088
뉴코아부천4층,경기도 부천시 송내대로 239 (상동),126.7566632,37.5041097
중동이마트,경기도 부천시 석천로 188 (중동),126.7639331,37.5040681
부천중동DT,경기도 부천시 부흥로 193 (중동),126.7642911,37.4963486
부천신중동역,경기도 부천시 길주로 281 (중동) 동화빌딩,126.7741522,37.5037936
역곡역DT,경기도 부천시 경인로 485,126.8092801,37.4835697
부천중동,경기도 부천시 신흥로 161 (중동),126.7770418,37.4980068
부천시청역,"경기도 부천시 길주로 181, 102,103,104,110,111,112호 (중동)",126.7626388,37.5053065
현대중동,"경기도 부천시 길주로 180, 현대백화점부천중동점 중동점 지하1층 (중동)",126.7620841,37.5043180
부천플레이도시,경기도 부천시 조마루로 2 (상동),126.7442354,37.4999701
송내역,"경기도 부천시 부일로 204, 루치올라빌딩 (상동)",126.7526028,37.4883470
부천,"경기도 부천시 부천로 7, 1,2층 (심곡동)",126.7822446,37.4850685
부천상동,경기도 부천시 상동로 87 (상동),126.7524429,37.5052289
중동디지털프라자,경기도 부천시 길주로 254 (중동),126.7706127,37.5031827
부천옥길DT,경기도 부천시 양지로 119 (옥길동),126.8161560,37.4720478
부천상동DT,경기도 부천시 평천로 611 (상동),126.7585925,37.5156881
부천원종DT,경기도 부천시 소사로 826 (원종동),126.8054366,37.5297546
부천중동센트럴,"경기도 부천시 소향로 181 (중동, 센트럴파크 푸르지오)",126.7678829,37.5021406
춘의역DT,경기도 부천시 길주로 386 (춘의동),126.7853935,37.5030804
신중동,경기도 부천시 신흥로 187 (중동),126.7764808,37.5003228
소사역,"경기도 부천시 경인옛로 25 (소사본동, 부천 한신더휴 메트로)",126.7951166,37.4816231
광교갤러리아9F,경기도 수원시 영통구 광교호수공원로 320 (하동),127.0574831,37.2847383
수원법조타운,경기도 수원시 영통구 광교중앙로248번길 7-2 (하동),127.0666550,37.2910271
광교역,경기도 수원시 영통구 대학로 47 (이의동),127.0440279,37.3005172
광교엘포트R,경기도 수원시 영통구 광교중앙로 145 (이의동),127.0577371,37.2870278
영통R,경기도 수원시 영통구 덕영대로 1566 (영통동),127.0618145,37.2451296
수원망포DT,경기도 수원시 영통구 덕영대로 1467,127.0513385,37.2458617
수원광교,경기도 수원시 영통구 센트럴타운로 85 (이의동) 광교c1호반베르디움,127.0504529,37.2907368
수원트레이더스,경기도 수원시 영통구 삼성로 2 트레이더스수원점 (신동),127.0485947,37.2460730
경희대국제캠퍼스,경기도 수원시 영통구 덕영대로 1695 (영통동),127.0767528,37.2479726
수원망포역,경기도 수원시 영통구 영통로 195 (망포동),127.0558468,37.2452099
광교이마트,경기도 수원시 영통구 광교로 191(이의동),127.0469684,37.2963486
수원영통,"경기도 수원시 영통구 봉영로 1617, 훼미리타워 1층 (영통동)",127.0743041,37.2555521
광교더샵레이크시티,경기도 수원시 영통구 광교호수공원로 20 (원천동),127.0601460,37.2710306
수원청명,경기도 수원시 영통구 청명로 88 (영통동),127.0782972,37.2545963
안산한양대,"경기도 안산시 상록구 성안길 82-3, B동 1층 (사동)",126.8382459,37.3009470
안산한대앞역,"경기도 안산시 상록구 광덕1로 379, 한남빌딩 1~2층 (이동)",126.8512572,37.3086615
안산삼성프라자,"경기도 안산시 상록구 광덕1로 342 (이동), 1층 일부",126.8478784,37.3063478
경기양평,경기도 양평군 양평읍 시민로 75,127.5000025,37.4910223
더양평DTR,경기도 양평군 양평읍 양근로 76,127.4816961,37.4970294
용인죽전역R,"경기도 용인시 수지구 용구대로 2750 (죽전동, 죽전 효성해링턴 플레이스)",127.1098145,37.3310887
죽전단국대,경기도 용인시 수지구 죽전로168번길 18 (죽전동),127.1249117,37.3244195
죽전,경기도 용인시 수지구 현암로 140 (죽전동),127.1246932,37.3315181
수지성복DT,경기도 용인시 수지구 성복2로 55 (성복동),127.0792001,37.3140670
광교중앙로,경기도 용인시 수지구 광교마을로 41 (상현동),127.0691897,37.2990188
죽전이마트,"경기도 용인시 수지구 포은대로 552, 이마트 죽전점 1층 (죽전동)",127.1098259,37.3253071
신세계경기,경기도 용인시 수지구 포은대로 536 (죽전동) 3층,127.1081252,37.3249507
수지이마트,경기도 용인시 수지구 수지로 203 (신봉동),127.0832813,37.3197105
수지풍덕천,"경기도 용인시 수지구 수지로296번길 51-11, 비즈마루빌딩 1층 101호 (풍덕천동)",127.0952840,37.3221847
수지구청역,"경기도 용인시 수지구 풍덕천로 119 (풍덕천동) 111,112,113,206,207호",127.0949400,37.3230615
수지성복역,경기도 용인시 수지구 성복2로 37 (성복동),127.0801982,37.3128194
파주P.아울렛1F,경기도 파주시 탄현면 필승로 200,126.6953831,37.7693462
파주야당역,경기도 파주시 야당동 1066-3,126.7596345,37.7122624
파주금촌역,경기도 파주시 문화로 109 (금촌동),126.7742430,37.7638962
파주금릉역,"경기도 파주시 금릉역로 84, 청원센트럴타워 1층 (금촌동)",126.7659540,37.7521117
파주운정,경기도 파주시 와석순환로 135,126.7444995,37.7120068
파주P.아울렛3F,경기도 파주시 탄현면 필승로 200 1312호,126.6953831,37.7693462
파주문산DT,경기도 파주시 파주읍 통일로 1555 (봉서리),126.7891085,37.8464637
파주가람,경기도 파주시 가람로 89 (와동동),126.7598544,37.7359581
파주산내,경기도 파주시 청암로17번길 29 (목동동),126.7356479,37.7286328
파주야당DT,경기도 파주시 경의로 966 (야당동),126.7596620,37.7034411
파주운정이마트,경기도 파주시 한울로 123 (동패동),126.7451109,37.7103661
지행역,경기도 동두천시 지행로 55 (지행동),127.0534822,37.8927008
동두천DT,경기도 동두천시 평화로 2254 (지행동),127.0570029,37.8890736
광주운남DT,광주광역시 광산구 임방울대로 156 (운남동),126.8180059,35.1751851
광주선운DT,광주광역시 광산구 선운로 20번길 63,126.7775360,35.1469568
광주산정DT,광주광역시 광산구 용아로 342 (산정동),126.8041938,35.1735911
광주흑석DT,광주광역시 광산구 사암로 367 (산정동),126.8078805,35.1769699
광주송정역,광주광역시 광산구 상무대로205번길 6 (송정동),126.7914030,35.1380586
광주수완DT,광주광역시 광산구 임방울대로 487 (수완동),126.8190356,35.2031116
광주신가DT,광주광역시 광산구 목련로 335 (신가동),126.8300191,35.1791660
광주쌍암,광주광역시 광산구 첨단중앙로 158 (쌍암동),126.8423889,35.2192990
광주장덕,광주광역시 광산구 장신로 85 (장덕동),126.8194435,35.1911954
광주하남,"광주광역시 광산구 사암로216번길 38-16, 1~2층 (우산동)",126.8102861,35.1625542
광주첨단,광주광역시 광산구 첨단중앙로 104 (월계동),126.8433352,35.2146238
광산수완,"광주광역시 광산구 장신로 134, 1~2층 (수완동)",126.8247309,35.1904233
광주첨단DT,광주광역시 광산구 첨단월봉로 84 (산월동),126.8476960,35.2061816
광주비아DT,광주광역시 광산구 첨단과기로 81 (비아동),126.8348784,35.2232044
광주송정로,광주광역시 광산구 상무대로 202 (송정동),126.7916604,35.1371915
광주월산DT,광주광역시 남구 대남대로 386 (월산동),126.8908416,35.1455527
광주주월DT,광주광역시 남구 회재로 1256 (주월동),126.8982064,35.1341058
광주효천DT,광주광역시 남구 임암길 232 (임암동),126.8712205,35.0999794
광주봉선로,광주광역시 남구 제석로 104 (봉선동),126.9074211,35.1237129
광주서문대로,광주광역시 남구 서문대로 665 (진월동),126.8986200,35.1190301
광주방림DT,광주광역시 남구 대남대로 67 (방림동),126.9176394,35.1349553
광주봉선중앙,광주광역시 남구 봉선중앙로 51 (봉선동),126.9111195,35.1254146
광주진월,광주광역시 남구 서문대로 745 (주월동),126.8973039,35.1257864
광주봉선,"광주광역시 남구 봉선로 176, 1층 101,111호 (봉선동)",126.9143064,35.1228092
봉선이마트,광주광역시 남구 봉선로 198 (봉선동),126.9161090,35.1223808
광주지산DT,광주광역시 동구 필문대로 240 (동명동),126.9290327,35.1498063
광주동명,광주광역시 동구 동명로 16 (동명동),126.9235272,35.1504832
광주지원DT,광주광역시 동구 남문로 529 (용산동),126.9335294,35.1182784
광주지산유원지입구,광주광역시 동구 무등로 592 (산수동),126.9406750,35.1542662
광주황금,광주광역시 동구 중앙로160번길 14 (황금동),126.9145743,35.1473578
충장서림,"광주광역시 동구 충장로 93-5 (금남로2가, 무등맨션)",126.9175059,35.1479396
충장일가,광주광역시 동구 서석로 43 (충장로1가),126.9182240,35.1468240
조선대,광주광역시 동구 지산로 3 (서석동),126.9301561,35.1446224
광주충장DT,광주광역시 동구 천변우로 421 (불로동),126.9149495,35.1443716
광주오치,광주광역시 북구 설죽로 314 (오치동),126.8988756,35.1874912
광주연제DT,광주광역시 북구 양일로18번길 2 (연제동),126.8665381,35.1974929
광주신안DT,광주광역시 북구 서암대로 93 (신안동),126.8948092,35.1715636
광주매곡DT,광주광역시 북구 설죽로 339 (매곡동),126.8986901,35.1897891
광주두암타운,광주광역시 북구 삼정로 4 (두암동),126.9373547,35.1621240
광주일곡,광주광역시 북구 설죽로 518 (일곡동),126.8980547,35.2054791
광주북구청,광주광역시 북구 서방로9번길 30 (중흥동),126.9144158,35.1747716
광주첨단신용,광주광역시 북구 첨단연신로 101 (신용동),126.8640533,35.2070104
광주용두DT,광주광역시 북구 임방울대로 1016 (신용동),126.8685424,35.2128143
전남대,"광주광역시 북구 우치로 110, 1,2,3층 (용봉동)",126.9124637,35.1771990
광주용봉,광주광역시 북구 저불로 45 (용봉동),126.8951730,35.1786655
동광주DT,광주광역시 북구 동문대로 148 (두암동),126.9277507,35.1758180
광주신세계DT,광주광역시 서구 죽봉대로 33 (화정동),126.8827448,35.1562492
광주상무DT,광주광역시 서구 상무대로 847 (쌍촌동),126.8548259,35.1499518
광주화정DT,광주광역시 서구 상무대로 1080,126.8799477,35.1522831
광주상무중앙로,광주광역시 서구 상무중앙로 46 (치평동) 1층,126.8489110,35.1510590
광주상무시민로,광주광역시 서구 운천로 253 (치평동) 103호,126.8543981,35.1549796
광주풍암,광주광역시 서구 풍암2로 8 (풍암동) 한아름빌딩,126.8796176,35.1268615
광주금호DT,광주광역시 서구 운천로109번길 1 (쌍촌동),126.8576206,35.1421464
광주상무대교,"광주광역시 서구 상무중앙로 90, 눈높이상무센터 1층 (치평동)",126.8488719,35.1549065
광주동림,"광주광역시 서구 하남대로 672-1, 1층 (동천동)",126.8661596,35.1715971
신세계광주,광주광역시 서구 무진대로 932 번지 신세계 백화점 1층,126.8827227,35.1605461
광주상무,광주광역시 서구 상무중앙로 75 (치평동),126.8478992,35.1536379
상무치평,"광주광역시 서구 상무자유로 173, 1층 (치평동)",126.8534255,35.1520145
상무역,"광주광역시 서구 상무중앙로 7, 1층 (치평동)",126.8479315,35.1474896
신세계광주신관B1,"광주광역시 서구 죽봉대로 61, 패션스트리트 B01호 (화정동)",126.8820431,35.1588069
서광주DT,광주광역시 서구 서광주로 23 (매월동),126.8474158,35.1293315
대구영대병원역DT,대구광역시 남구 봉덕로 25 (봉덕동),128.5934660,35.8454652
대구앞산DT,대구광역시 남구 현충로 32 (대명동),128.5799344,35.8356293
대구가톨릭대학교병원,대구광역시 남구 두류공원로17길 33 (대명동),128.5679969,35.8436078
대구앞산스카이타운,대구광역시 남구 앞산순환로 375 (대명동),128.5669051,35.8323164
계명대동산병원,대구광역시 달서구 달구벌대로 1035 (신당동),128.4801315,35.8538856
대구죽전역,대구광역시 달서구 와룡로 169,128.5359407,35.8481004
대구월곡DT,대구광역시 달서구 월곡로 225 (상인동),128.5410111,35.8148660
대구광장,대구광역시 달서구 달구벌대로 1710 (두류동),128.5528131,35.8557251
대구월촌역,대구광역시 달서구 월배로 315 (송현동),128.5452091,35.8240194
대구진천역,대구광역시 달서구 월배로 91 (진천동),128.5243203,35.8144461
대구도원DT,대구광역시 달서구 상화로 314 (도원동),128.5480828,35.8077473
대구월성,대구광역시 달서구 조암로 41 (월성동),128.5257173,35.8242367
대구수목원,대구광역시 달서구 화암로 379,128.5202582,35.8072287
대구성서IC DT,대구광역시 달서구 달구벌대로 1393,128.5202036,35.8507926
대구감삼DT,대구광역시 달서구 와룡로 131,128.5366573,35.8443986
대구상인역,대구광역시 달서구 월배로 210 (상인동),128.5365435,35.8182622
대구두류DT,대구광역시 달서구 달구벌대로 1798 (두류동),128.5618323,35.8588452
대구상인DT,대구광역시 달서구 월곡로 334 (상인동),128.5337479,35.8227473
대구계명대,대구광역시 달서구 계대동문로 13 (신당동),128.4938005,35.8557898
대구성서,"대구광역시 달서구 이곡공원로 26, 이곡메디컬빌딩 (이곡동)",128.5103190,35.8550778
대구서부정류장역,대구광역시 달서구 구마로 265 (성당동),128.5568683,35.8378877
대구이월드,대구광역시 달서구 두류공원로 200 (두류동),128.5648210,35.8548554
대구대천,대구광역시 달서구 조암남로32길 2 (대천동),128.5178426,35.8172469
신세계대구3F(티바나),대구광역시 동구 동부로 149 신세계백화점 대구점 3층,128.6291671,35.8777043
신세계대구8FR,대구광역시 동구 동부로 149 신세계백화점 대구점 8층,128.6291671,35.8777043
동대구로DT,대구광역시 동구 동대구로 422 (신천동),128.6271287,35.8681175
대구팔공산,대구광역시 동구 파계로 650,128.6364230,35.9879253
대구봉무,대구광역시 동구 팔공로51길 15-11 (봉무동),128.6397382,35.9220645
동대구터미널,대구광역시 동구 동부로30길 12 (신천동),128.6285960,35.8762207
대구동촌유원지,대구광역시 동구 효동로2길 45 (효목동),128.6532096,35.8800815
반야월이마트,"대구광역시 동구 안심로 389-2, 이마트 1층 (신서동)",128.7274213,35.8707740
대구팔공로DT,대구광역시 동구 팔공로 332 (봉무동),128.6418462,35.9285091
대구율하,대구광역시 동구 안심로16길 47 (율하동),128.6937409,35.8632576
대구각산역DT,대구광역시 동구 안심로 383,128.7259829,35.8689800
대구평리DT,대구광역시 서구 서대구로 89 (평리1동),128.5553238,35.8659464
대구수성도서관DT,대구광역시 수성구 화랑로 112 (만촌동),128.6389954,35.8727726
대구그랜드호텔R,대구광역시 수성구 동대구로 305 (범어동),128.6253150,35.8576433
국립대구박물관DT,대구광역시 수성구 청호로 318 (황금동),128.6391181,35.8456111
대구수성호수R,대구광역시 수성구 용학로 56 (두산동),128.6158036,35.8260896
대구수성동,대구광역시 수성구 명덕로 460 (수성동3가),128.6203218,35.8537812
대구수성네거리DT,대구광역시 수성구 들안로 342 (수성동4가),128.6179568,35.8605286
대구중동DT,대구광역시 수성구 수성로 243 (중동),128.6125253,35.8473644
대구중동네거리DT,대구광역시 수성구 청수로 51 (중동),128.6139285,35.8409094
대구상동DT,대구광역시 수성구 무학로 29(상동),128.6116507,35.8295478
대구황금DT,대구광역시 수성구 청수로 164 (지산동),128.6259057,35.8391356
대구삼성화재,대구광역시 수성구 동대구로 401 (범어동) 삼성화재사옥,128.6262550,35.8663159
대구시지,대구광역시 수성구 달구벌대로 3216 (신매동),128.7080082,35.8394838
대구만촌DT,"대구광역시 수성구 달구벌대로 2636, , 853-25번지 (만촌동)",128.6502047,35.8563133
대구수성하이츠,"대구광역시 수성구 수성로 393, 수성하이츠 1층 (수성동4가)",128.6135781,35.8609292
동아수성,"대구광역시 수성구 지범로 191, 동아백화점수성점 1층 (범물동)",128.6404170,35.8210792
수성리더스,대구광역시 수성구 동대구로 95 (두산동),128.6230707,35.8387222
수성레이크,대구광역시 수성구 수성못길 4 (두산동),128.6217516,35.8257004
대구범어제니스,"대구광역시 수성구 달구벌대로 2435, 두산위브더제니스아파트 상가 1층 110호 (범어동)",128.6289865,35.8603108
대구두산DT,대구광역시 수성구 지범로 37 (두산동),128.6258410,35.8273068
대구들안길DT,대구광역시 수성구 들안로 85 (상동),128.6164291,35.8374534
대구만촌이마트,대구광역시 수성구 동원로 136 (만촌동),128.6372544,35.8711951
대구시티센터,대구광역시 중구 국채보상로 611 (문화동),128.5980851,35.8708765
대구계산,대구광역시 중구 달구벌대로415길 1 (계산동2가),128.5897080,35.8664605
대구중앙로역,대구광역시 중구 국채보상로 582 (남일동),128.5943173,35.8706778
대구공평DT,대구광역시 중구 국채보상로 642 (동인동2가),128.6006534,35.8695563
반월당,대구광역시 중구 달구벌대로 2085 (덕산동) 동아쇼핑,128.5918299,35.8663086
동성로광장,대구광역시 중구 동성로 4 (동성로3가),128.5941667,35.8672974
동성로로데오,대구광역시 중구 동성로5길 62 (삼덕동1가),128.5978349,35.8672280
대구종로고택,대구광역시 중구 중앙대로77길 22 (종로2가),128.5924503,35.8684133
대구반월삼성,대구광역시 중구 달구벌대로 2095 (덕산동),128.5928006,35.8662996
대구228중앙공원,대구광역시 중구 동성로2길 95 (동성로2가),128.5968649,35.8701805
대구칠성DT,대구광역시 북구 중앙대로 524 (칠성동2가),128.5963690,35.8796335
대구유통단지,대구광역시 북구 유통단지로8길 78 106호 (산격동),128.6132814,35.9056354
대구칠곡대로DT,대구광역시 북구 칠곡중앙대로 348 (태전동),128.5479758,35.9264912
대구동천,대구광역시 북구 동천로 123,128.5605204,35.9425530
대구침산DT,대구광역시 북구 침산로 126 (침산동),128.5919098,35.8874683
대구칠곡,대구광역시 북구 학정로 422 (구암동) 태을빌딩,128.5638582,35.9421816
경북대,대구광역시 북구 대학로 75 (산격동),128.6085613,35.8922956
대구복현DT,대구광역시 북구 대학로 150 (복현동),128.6144600,35.8968233
대구칠곡읍내DT,칠곡중앙대로 631 칠곡중앙대로 631,128.5531294,35.9518578
대구칠성이마트,대구광역시 북구 침산로 93 (칠성동2가),128.5897899,35.8852256
대구금호,대구광역시 북구 한강로4길 9 (사수동),128.5145482,35.8960899
대구테크노폴리스,"대구광역시 달성군 유가면 테크노상업로 84 대경타워 105호, 106호, 107호",128.4591355,35.6932626
대구죽곡,대구광역시 달성군 달구벌대로 861 (다사읍),128.4642402,35.8591337
대전한남대DT,대전광역시 대덕구 한밭대로 1122 (중리동),127.4232495,36.3584656
대전IC DT,대전광역시 대덕구 동서대로 1776 (비래동),127.4442241,36.3542253
대전신탄진DT,대전광역시 대덕구 대덕대로 1544 (석봉동),127.4199213,36.4487330
대전송촌,"대전광역시 대덕구 송촌북로36번길 36, 1층 (송촌동)",127.4380270,36.3661467
신탄진금강DT,대전광역시 대덕구 신탄진로 866 (신탄진동),127.4289563,36.4546915
대전터미널DT,대전광역시 동구 동서대로 1658 (성남동),127.4342466,36.3478487
대전판암DT,대전광역시 동구 옥천로 118 (판암동),127.4533825,36.3171732
대전스타일마켓,"대전광역시 동구 동서대로 1689, 2층 (용전동)",127.4366973,36.3503767
대전가오,대전광역시 동구 동구청로 101 (가오동),127.4561560,36.3070518
대전터미널,대전광역시 동구 동서대로1695번길 4 (용전동),127.4380750,36.3499328
대전신흥역DT,대전광역시 동구 옥천로 89 (판암동),127.4510699,36.3191174
대전용전DT,대전광역시 동구 한밭대로 1239 (용전동),127.4354067,36.3571557
대전정부청사역,대전광역시 서구 한밭대로 755 (둔산동),127.3825172,36.3581999
대전건양대병원,대전광역시 서구 관저동로 170 (관저동)1층,127.3411595,36.3073063
대전탄방역,대전광역시 서구 문정로2번길 95 (탄방동),127.3854545,36.3433028
대전복수,대전광역시 서구 복수남로 28 (복수동),127.3782468,36.2983699
대전둔산남로,대전광역시 서구 둔산남로 100 (탄방동),127.3886473,36.3487467
대전둔산로,대전광역시 서구 대덕대로241번길 35 (둔산동),127.3773033,36.3542723
대전법원,대전광역시 서구 둔산로123번길 43 (둔산동),127.3874303,36.3532996
대전가수원DT,대전광역시 서구 계백로 1128 (가수원동),127.3489326,36.3037150
대전수침교DT,대전광역시 서구 계룡로 692 (용문동),127.3967932,36.3350318
대전관저,대전광역시 서구 관저로 142 (관저동),127.3379338,36.2985711
대전대덕로,대전광역시 서구 대덕대로234번길 18 (둔산동),127.3806134,36.3533473
대전목원대,대전광역시 서구 동서대로 682 (도안동),127.3386415,36.3318241
대전둔산,대전광역시 서구 대덕대로 189 (둔산동),127.3772812,36.3502396
대전만년,대전광역시 서구 만년로 81 (만년동),127.3819883,36.3676718
대전시청사거리,대전광역시 서구 둔산남로 50 (탄방동),127.3835514,36.3480403
대전월평,대전광역시 서구 청사로123번길 25 (월평동),127.3772853,36.3610295
둔산은하수,"대전광역시 서구 둔산로31번길 28, 금정빌딩 1층 (둔산동)",127.3777866,36.3529601
대전탄방,"대전광역시 서구 문정로 78, 정우빌딩 1층 (탄방동)",127.3878797,36.3464658
대전시청역,대전광역시 서구 둔산로 142 (둔산동),127.3895232,36.3509919
대전호텔,"대전광역시 서구 둔산중로134번길 13, 둔산관광호텔 (둔산동)",127.3876476,36.3590570
월평트레이더스,대전광역시 서구 한밭대로 580 (월평동),127.3629318,36.3576787
둔산삼성프라자,대전광역시 서구 대덕대로 254 삼성전자 메가스토어 대전본점 1층 (둔산동),127.3799754,36.3554336
대전갈마DT,대전광역시 서구 계룡로 384 (갈마동),127.3704947,36.3515558
대전용문DT,대전광역시 서구 도산로 336 (용문동),127.3896381,36.3350850
대전반석역,대전광역시 유성구 북유성대로 303 (반석동),127.3142363,36.3916607
대전도안DT,대전광역시 유성구 도안대로 573 (봉명동),127.3401684,36.3514180
대전장대,대전광역시 유성구 유성대로 781 (장대동),127.3362528,36.3620023
대전유성구청,대전광역시 유성구 어은로 42 (어은동),127.3576950,36.3622379
대전지족,대전광역시 유성구 지족로 373 (지족동),127.3175488,36.3872208
대전유성,대전광역시 유성구 온천서로 2 (봉명동),127.3395619,36.3545515
대전전민,대전광역시 유성구 유성대로 1722 (전민동),127.4005133,36.3994801
대전관평동,대전광역시 유성구 테크노중앙로 68,127.3926194,36.4254695
대전조이마루,대전광역시 유성구 엑스포로 97번길 40,127.3904662,36.3763434
대전노은,"대전광역시 유성구 은구비남로33번길 26, 1~2층 (지족동)",127.3195404,36.3734657
충남대정문,대전광역시 유성구 대학로 82 (궁동),127.3446374,36.3606837
대전테크노밸리,대전광역시 유성구 테크노4로 105 (관평동),127.3897584,36.4253029
신세계대전R,"대전광역시 유성구 엑스포로 1 (도룡동), 대전신세계 백화점 5F",127.3820320,36.3751116
대전현대아울렛,대전광역시 유성구 테크노중앙로 123 (용산동),127.3985168,36.4234369
대전유성NC,대전광역시 유성구 계룡로 119 (봉명동),127.3440396,36.3537391
대전구암DT,대전광역시 유성구 월드컵대로289번길 6 (구암동),127.3326495,36.3488486
신세계대전B1,"대전광역시 유성구 엑스포로 1 (도룡동), 대전신세계 백화점 B1층",127.3820320,36.3751116
대전엑스포스카이,대전광역시 유성구 엑스포로 1 (도룡동) 신세계엑스포점 38층,127.3820320,36.3751116
대전대사DT,대전광역시 중구 계룡로 949 (대사동),127.4174429,36.3187949
대전태평,대전광역시 중구 태평로 71 (태평동),127.3935356,36.3234125
대전유천DT,대전광역시 중구 계백로 1604 (유천동),127.3982449,36.3183569
대전중앙로R,대전광역시 중구 대종로 486 (은행동),127.4265699,36.3279739
대전세이1층,"대전광역시 중구 계백로 1700, 외 4필지 세이백화점 신관 (문화동)",127.4087992,36.3206308
은행동,대전광역시 중구 중앙로 164 (은행동),127.4276422,36.3290796
대전목동DT,대전광역시 중구 동서대로 1387 (목동),127.4109569,36.3328689
금정남산동DT,부산광역시 금정구 중앙대로 1989 (남산동),129.0913022,35.2621005
금정구청DT,부산광역시 금정구 중앙대로 1730 (부곡동),129.0929838,35.2388200
온천장역DT,부산광역시 금정구 식물원로 13 (장전동),129.0865377,35.2239894
부산대정문,부산광역시 금정구 부산대학로64번길 12 (장전동),129.0845525,35.2321095
부산대역,"부산광역시 금정구 장전로12번길 64, 1~4층 (장전동)",129.0887473,35.2305109
부산대,"부산광역시 금정구 금정로68번길 2, 건우빌딩 (장전동)",129.0866328,35.2306390
금정이마트,부산광역시 금정구 중앙대로1841번길 24 (구서동),129.0906011,35.2499563
금정구서,부산광역시 금정구 금강로 441 (구서동),129.0887076,35.2469781
용호동W스퀘어,"부산광역시 남구 분포로 145 (용호동) 더블유스퀘어동 1019호,1020호,1021호,2011호 2012호",129.1126448,35.1337125
동명대DT,부산광역시 남구 신선로 423 (용당동),129.0989816,35.1231215
BIFC Mall,부산광역시 남구 문현금융로 40 (문현동) 부산국제금융센터,129.0656311,35.1472602
부산대연역,"부산광역시 남구 수영로 240-1, 1층 (대연동)",129.0930379,35.1349339
경성대,부산광역시 남구 수영로 312 (대연동),129.1006257,35.1369845
부산대연못골,부산광역시 남구 못골로 87 (대연동),129.0920138,35.1361106
부산역라마다,부산광역시 동구 중앙대로196번길 10 (초량동),129.0403324,35.1142499
부산역아스티,부산광역시 동구 중앙대로214번길 7-8 (초량동),129.0417391,35.1161879
부산역,부산광역시 동구 중앙대로 216 (초량동),129.0408126,35.1163248
범일동일타워,부산광역시 동구 조방로 14 (범일동),129.0634901,35.1387523
서면중앙대로R,부산광역시 부산진구 중앙대로 672 (부전동) 1층 2층,129.0596393,35.1529881
서면로R,부산광역시 부산진구 서면로 49-1 (부전동),129.0574585,35.1552635
서면NC,부산광역시 부산진구 동천로 92 (전포동) NC백화점 1층,129.0631356,35.1570630
양정역,부산광역시 부산진구 중앙대로 894 (양정동),129.0692455,35.1700884
동의대역,부산광역시 부산진구 가야대로 589 (가야제1동),129.0362000,35.1549865
부산개금역,부산광역시 부산진구 가야대로 462 (개금동),129.0224752,35.1528673
서면전포역,부산광역시 부산진구 전포대로199번길 27 (전포동),129.0635917,35.1542845
부산서면중앙로,부산광역시 부산진구 중앙대로 701 (부전동),129.0589099,35.1554590
서면서전로,부산광역시 부산진구 서전로 19 (부전동),129.0619207,35.1579727
부산서면,부산광역시 부산진구 중앙대로692번길 46-10 (부전동),129.0615439,35.1540946
서면역,부산광역시 부산진구 서전로 1 (부전동),129.0599312,35.1580155
부전역,"부산광역시 부산진구 중앙대로 777, 서면호텔 복합시설1,2층 (부전동)",129.0618849,35.1618574
서면센트럴스퀘어,부산광역시 부산진구 중앙대로666번길 50 (부전동),129.0609104,35.1519683
서면메디컬거리,"부산광역시 부산진구 가야대로 783-1, 1층 (부전동)",129.0573894,35.1579604
서면중앙,부산광역시 부산진구 서면로68번길 1 (부전동),129.0580729,35.1568836
서면트레이더스,부산광역시 부산진구 시민공원로 31 (부암동),129.0525896,35.1638954
서면엠디엠타워,부산광역시 부산진구 중앙대로 639 (범천동),129.0587787,35.1497393
서면문화로,부산광역시 부산진구 서면문화로 10 (부전동),129.0576139,35.1588242
부산덕천역,부산광역시 북구 만덕대로 30 (덕천동),129.0084806,35.2106670
부산화명역,부산광역시 북구 금곡대로285번길 5 (화명동),129.0131863,35.2336922
화명강변DT,부산광역시 북구 금곡대로77 (덕천동),129.0046882,35.2167300
부산구남역DT,부산광역시 북구 백양대로 1040 (구포동),128.9962937,35.1982495
부산만덕DT,부산광역시 북구 만덕대로 323 (만덕동),129.0398401,35.2131972
사상주례DT,부산광역시 사상구 백양대로 520 (주례동),128.9961327,35.1548635
동서대DT,부산광역시 사상구 가야대로 338 (주례동),129.0098280,35.1507621
사상역,부산광역시 사상구 사상로 211 (괘법동),128.9834125,35.1639823
부산사상로,부산광역시 사상구 사상로 200 (괘법동) 105호,128.9846023,35.1629712
삼락강변DT,부산광역시 사상구 낙동대로 1306 (삼락동),128.9767728,35.1767766
사상엄궁DT,부산광역시 사상구 낙동대로 744 (엄궁동),128.9697404,35.1276654
다대포비치,부산광역시 사하구 다대로 714 (다대동),128.9635673,35.0491130
부산하단,부산광역시 사하구 낙동대로 455 (하단동),128.9688490,35.1053390
다대포DT,부산광역시 사하구 다대로 493 (다대동),128.9752405,35.0609481
을숙도강변DT,부산광역시 사하구 하신번영로 381-6 (하단동),128.9595390,35.1153731
부산괴정역,부산광역시 사하구 사하로186번길 6 (괴정동),128.9942327,35.0984005
하단중앙,부산광역시 사하구 낙동남로 1411 (하단동),128.9660433,35.1065094
사하장림DT,부산광역시 사하구 을숙도대로 682 (장림동),128.9802510,35.0846079
부산교대역DT,부산광역시 연제구 중앙대로 1250 (거제동),129.0789582,35.1989573
연산시티타워,부산광역시 연제구 중앙대로 1125 (연산동),129.0806504,35.1880405
부산교대역,부산광역시 연제구 명륜로 3 (거제제1동) 한양프라자,129.0812268,35.1964921
부산연산역,부산광역시 연제구 반송로 20 (연산동),129.0833100,35.1869587
연산중앙로,부산광역시 연제구 중앙대로 1091 (연산동),129.0806502,35.1854186
부산교대,부산광역시 연제구 교대로 20-2 (거제동),129.0774795,35.1957169
연산트레이더스,부산광역시 연제구 좌수영로 241 연산동,129.1119510,35.1850940
부산시청,부산광역시 연제구 중앙천로 93 (연산동),129.0785079,35.1815106
영도청학DT,부산광역시 영도구 태종로 373 (청학동),129.0651528,35.0938589
영도대교,부산광역시 영도구 태종로 39 (대교동1가),129.0372514,35.0945984
부산광복로R,부산광역시 중구 광복중앙로 8-2 (광복동3가),129.0313866,35.1001158
자갈치역,부산광역시 중구 구덕로 54-1 (남포동5가),129.0297081,35.0983849
국제시장,부산광역시 중구 대청로 80 (대청동3가),129.0285778,35.1027847
부산중앙역,부산광역시 중구 중앙대로81번길 2 (중앙동4가),129.0359175,35.1051502
BIFF광장,부산광역시 중구 비프광장로 25 (남포동3가),129.0280180,35.0989607
남포동역,"부산광역시 중구 구덕로 4, 1~2층 (광복동1가)",129.0351408,35.0983145
기장역DT,부산광역시 기장군 기장읍 기장대로 527,129.2202226,35.2421822
동부산DT,부산광역시 기장군 기장읍 기장해안로 56,129.2108092,35.1840891
부산정관,부산광역시 기장군 정관읍 정관로 579,129.1771724,35.3213769
부산P.아울렛,부산광역시 기장군 정관로 1133 (175호),129.2349663,35.3238110
동부산테마파크,부산광역시 기장군 기장읍 동부산관광로 34,129.2139687,35.1939227
광안수변공원,부산광역시 수영구 민락수변로 29 (민락동),129.1246407,35.1533383
수영역,부산광역시 수영구 수영로 671 (광안동),129.1144799,35.1657592
금련산역,부산광역시 수영구 수영로464번길 6 (남천동),129.1105397,35.1471815
광안비치,부산광역시 수영구 광안로62번길 39 (광안동),129.1177151,35.1530729
수영망미DT,부산광역시 수영구 과정로 68 (망미동),129.1074902,35.1773741
광안리,부산광역시 수영구 광안해변로 247 (민락동),129.1208365,35.1550462
남천,부산광역시 수영구 남천바다로 38 (남천동),129.1141789,35.1482969
밀락더마켓,부산광역시 수영구 민락수변로17번길 56 (민락동),129.1270394,35.1542203
스타필드명지,부산광역시 강서구 명지국제6로 168 스타필드 명지 1층,128.9181436,35.0931120
명지강변DT,부산광역시 강서구 르노삼성대로 620 (명지동),128.9294838,35.1026445
명지국제신도시,부산광역시 강서구 명지국제5로 42 (명지동),128.9202536,35.0976753
명지오션시티,부산광역시 강서구 명지오션시티11로 66 (명지동),128.9031455,35.0840394
명지퍼스트월드,"부산광역시 강서구 명지국제7로 37 (명지동, 더샵 명지퍼스트월드 2단지)",128.9060117,35.0989136
동래역,부산광역시 동래구 충렬대로181번길 42,129.0801639,35.2056188
명륜역,부산광역시 동래구 동래로 25,129.0783424,35.2125513
사직구장,부산광역시 동래구 사직북로 4 (사직동),129.0613598,35.1962582
부산안락DT,부산광역시 동래구 충렬대로 446 (안락동),129.1068856,35.1958936
동래미남DT,부산광역시 동래구 충렬대로 101 (온천동),129.0720282,35.2071887
부산사직,부산광역시 동래구 사직북로 24 (사직동),129.0605403,35.1979788
부산온천장역,"부산광역시 동래구 중앙대로 1523, SK허브스카이위아아파트 1층 (온천동)",129.0855308,35.2208431
부산동래,부산광역시 동래구 충렬대로 194 (명륜동),129.0809893,35.2029149
부산송도해수욕장,"부산광역시 서구 송도해변로 97(101,102,201) (암남동)",129.0178454,35.0772276
부민사거리,부산광역시 서구 구덕로 212 (부민동1가),129.0202416,35.1036014
부산동대신역,부산광역시 서구 구덕로322번길 7 (동대신동3가),129.0167262,35.1126625
동아대병원,부산광역시 서구 동대로 8 (동대신동3가),129.0171713,35.1194084
더해운대R,"부산광역시 해운대구 해운대해변로 197 (우동, 해운대경동제이드아파트)",129.1525078,35.1588041
수영강변DT,부산광역시 해운대구 수영강변대로 516 (반여동),129.1194123,35.2039763
센텀파크,"부산광역시 해운대구 센텀중앙로 145 (재송동, 더샵센텀파크1차아파트)",129.1219424,35.1788329
해운대역,부산광역시 해운대구 구남로 9 (우동),129.1596170,35.1633188
부산재송DT,부산광역시 해운대구 해운대로 189 (재송동),129.1239775,35.1812445
해운대,부산광역시 해운대구 구남로 49 (중동) 101호,129.1621594,35.1601894
센텀로,부산광역시 해운대구 센텀2로 10 (우동) 센텀메디컬센타 1층 스타벅스 센텀로점,129.1315304,35.1678325
센텀신세계B1,부산광역시 해운대구 센텀남대로 35 (우동) 센텀시티 신세계UEC,129.1295233,35.1688179
해운대달맞이DT,부산광역시 해운대구 달맞이길 57 (중동) 1~3층,129.1707326,35.1614322
센텀그린타워,부산광역시 해운대구 센텀중앙로 78 (우동),129.1269785,35.1746308
부산송정비치,부산광역시 해운대구 송정해변로 36 (송정동),129.2022574,35.1807609
장산역,부산광역시 해운대구 해운대로 802 (좌동),129.1766569,35.1691635
하버타운,부산광역시 해운대구 해운대해변로 257 (우동),129.1595211,35.1596870
벡스코,"부산광역시 해운대구 APEC로 55, 벡스코내 (우동)",129.1363115,35.1690975
베네시티,부산광역시 해운대구 해운대해변로 163 (우동),129.1505161,35.1585366
팔레드시즈,"부산광역시 해운대구 해운대해변로298번길 24, 팔래드시즈 1-3호, 2-3호 (중동)",129.1666037,35.1602157
블루스퀘어,부산광역시 해운대구 좌동로 96 (좌동),129.1756388,35.1721515
센텀시티역,"부산광역시 해운대구 센텀동로 9, 트럼프월드센텀아파트 1층 (우동)",129.1324214,35.1703962
제니스스퀘어,"부산광역시 해운대구 마린시티2로 33, 제니스스퀘어 (우동)",129.1450910,35.1566670
마린시티아이파크,부산광역시 해운대구 마린시티2로 38 (우동),129.1425875,35.1565821
해운대달맞이,부산광역시 해운대구 달맞이길 189 (중동),129.1822750,35.1579329
해운대이마트,부산광역시 해운대구 좌동순환로 511 (중동) 1층,129.1673813,35.1660122
센텀드림월드,"부산광역시 해운대구 센텀2로 25, 센텀드림월드 1층 (우동)",129.1329470,35.1669544
센텀KNN,부산광역시 해운대구 센텀서로 30 (우동),129.1284526,35.1720149
월드마크센텀,"부산광역시 해운대구 센텀동로 25, 1층 (우동)",129.1314178,35.1714366
해운대NC,부산광역시 해운대구 해운대로 813 (좌동),129.1770418,35.1705169
해운대좌동,부산광역시 해운대구 좌동순환로 178 (좌동),129.1755258,35.1775052
해운대 엑스더스카이,부산광역시 해운대구 달맞이길30,129.1683765,35.1610640
센텀신세계3F,부산광역시 해운대구 센텀남대로 35 (우동),129.1295233,35.1688179
해운대중동역,부산광역시 해운대구 좌동순환로 6 (중동),129.1680556,35.1672265
센텀몰1F,부산광역시 해운대구 센텀4로 15 (우동),129.1283011,35.1698401
그랜드조선 부산,부산광역시 해운대구 해운대해변로 292 (중동),129.1631314,35.1601020
울산번영로,울산광역시 남구 삼산로 182 (달동),129.3272461,35.5369544
울산대공원,울산광역시 남구 대공원입구로 4 (옥동),129.2939472,35.5321897
울산도산사거리DT,울산광역시 남구 대암로129번길 9-6 (야음동),129.3297520,35.5307140
울산시청사거리DT,울산광역시 남구 중앙로 180 (달동),129.3135168,35.5371692
울산남구청DT,울산광역시 남구 번영로 215 (신정동),129.3247140,35.5441811
울산중리사거리DT,울산광역시 남구 돋질로 310 (삼산동),129.3386062,35.5438964
울산센트럴,울산광역시 남구 삼산로 231 (달동),129.3327131,35.5386826
울산삼산로,울산광역시 남구 삼산로 278 번길 8 (삼산동),129.3372881,35.5384818
울산대,울산광역시 남구 대학로84번길 5-3 (무거동),129.2601944,35.5424541
울산디자인거리,"울산광역시 남구 삼산중로74번길 30-1, 1~2층 (삼산동)",129.3387618,35.5404787
울산신복,울산광역시 남구 대학로 152 (무거동),129.2628244,35.5479648
울산삼산대로,"울산광역시 남구 삼산로 257, 1층 (달동)",129.3350854,35.5391704
울산번영로DT,울산광역시 남구 달삼로 3 (달동),129.3292962,35.5353888
울산삼성프라자,울산광역시 남구 삼산로 86 (달동),129.3172131,35.5343350
울산신정DT,울산광역시 남구 문수로 435 (신정동),129.3012234,35.5336335
울산호계DT,울산광역시 북구 산업로 1464 (신천동),129.3450621,35.6379453
울산북구청DT,울산광역시 북구 산업로 1011 (연암동),129.3590912,35.5833679
울산진장,울산광역시 북구 진장17길 10 (진장동),129.3564495,35.5624072
울산정자비치DT,울산광역시 북구 동해안로 1601 (산하동),129.4413776,35.6272496
울산화봉,울산광역시 북구 화봉로 75 (화봉동),129.3673296,35.5886182
북울산삼성프라자,울산광역시 북구 진장유통로 65 (진장동),129.3558901,35.5765005
울산간절곶,울산광역시 울주군 서생면 대송리 25-18,129.3591375,35.3589489
울산 KTX,울산광역시 울주군 삼남읍 도호1길 16,129.1418046,35.5479505
울산MBC DT,울산광역시 중구 번영로 434 (복산동),129.3323477,35.5616314
울산성안,울산광역시 중구 성안12길 45 (성안동),129.3241964,35.5779483
울산성남삼거리,울산광역시 중구 젊음의2거리 33 (성남동),129.3205517,35.5531336
울산약사DT,울산광역시 중구 북부순환도로 754 (약사동),129.3373614,35.5729921
울산국가정원,울산광역시 중구 태화강국가정원길 205 (태화동),129.2972717,35.5501615
현대동구,울산광역시 동구 방어진순환도로 899 (서부동) 현대백화점주차장,129.4313861,35.5216211
울산테라스파크,울산광역시 동구 방어진순환도로 652 (일산동),129.4288433,35.4997805
울산일산비치DT,울산광역시 동구 일산진11길 95 (일산동),129.4310254,35.4988045
현대동구5F,울산광역시 동구 방어진순환도로 899 (서부동),129.4313861,35.5216211
울산주전비치,울산광역시 동구 동해안로 667 (주전동),129.4547257,35.5656562
인천강화DT,인천광역시 강화군 강화읍 강화대로 343,126.4916229,37.7426942
경인교대입구역DT,인천광역시 계양구 계양대로 131 (작전동),126.7221957,37.5355338
인천계양,인천광역시 계양구 장제로 808 (계산동),126.7350512,37.5398456
인천작전,"인천광역시 계양구 계양대로 37, 1층 (작전동)",126.7220528,37.5271216
인천계산역DT,인천광역시 계양구 경명대로 1105 (계산동),126.7298058,37.5436305
계양BMW,인천광역시 계양구 서운산단로2길 6 (서운동) BMW 바바리안모터스,126.7567491,37.5320505
인천학익DT,인천광역시 미추홀구 매소홀로 368 (학익동),126.6629191,37.4404045
인천용현DT,인천광역시 미추홀구 아암대로 107 (용현동),126.6325656,37.4523966
주안역,"인천광역시 미추홀구 주안로 100 (주안동) 1층,2층",126.6806875,37.4638134
인하대,인천광역시 미추홀구 인하로 59 (용현동),126.6550012,37.4518521
제물포역DT,인천광역시 미추홀구 경인로 103 (숭의동),126.6541129,37.4664733
인천주안DT,인천광역시 미추홀구 인주대로 443 (주안동),126.6858867,37.4513546
인천도화DT,인천광역시 미추홀구 장고개로 28 (도화동),126.6672094,37.4704644
인하대역,인천광역시 미추홀구 독배로 309 (용현동),126.6492579,37.4477929
SSG랜더스필드2F,인천광역시 미추홀구 매소홀로 618 (문학동),126.6905530,37.4365777
SSG랜더스필드1F,인천광역시 미추홀구 매소홀로 618 (문학동),126.6905530,37.4365777
인천용일사거리DT,인천광역시 미추홀구 한나루로 525 (주안동),126.6682562,37.4537000
송림트레이더스,"인천광역시 동구 봉수대로 82, 이마트 트레이더스송림점1층 (송림동)",126.6603503,37.4830655
인천갈산DT,인천광역시 부평구 장제로 371 (갈산동),126.7321331,37.5188670
인천삼산,인천광역시 부평구 길주로 643 (삼산동),126.7342040,37.5072206
부평사거리,"인천광역시 부평구 부평문화로 52, 1~2층 (부평동)",126.7220080,37.4937792
부평시장역,"인천광역시 부평구 부평대로 60, 현대해상화재보험 1층 (부평동)",126.7229673,37.4967522
부평,인천광역시 부평구 경원대로 1397 (부평동),126.7245074,37.4915976
동암역,"인천광역시 부평구 동암광장로 14, 1~2층 (십정동)",126.7023295,37.4715754
부평역,"인천광역시 부평구 경원대로 1377, 1-4층 (부평동)",126.7221382,37.4914876
인천테크노밸리,인천광역시 부평구 주부토로 236 (갈산동),126.7268033,37.5158606
인천성모병원,인천광역시 부평구 동수로 56 (부평동),126.7248987,37.4848309
인천스퀘어원,인천광역시 연수구 청능대로 210 (동춘동),126.6836221,37.4059982
인천동춘DT,인천광역시 연수구 앵고개로 171 (동춘동),126.6644694,37.4125284
인천송도,"인천광역시 연수구 컨벤시아대로 55 (송도동, 송도이안)",126.6517349,37.3968650
송도트리플R,인천광역시 연수구 송도과학로16번길 33-1 (송도동),126.6594616,37.3810818
인천송도DT,인천광역시 연수구 하모니로 136 (송도동),126.6442784,37.3848220
인천연수,"인천광역시 연수구 용담로 115 (연수동) 105,106,203호",126.6778320,37.4151256
송도캠퍼스타운역,인천광역시 연수구 송도과학로27번길 55 (송도동) 롯데캠퍼스타운,126.6650323,37.3881981
송도커넬워크,인천광역시 연수구 아트센터대로 131 (송도동),126.6368958,37.3993587
송도센트럴파크,인천광역시 연수구 센트럴로 194 (송도동),126.6404080,37.3951272
연수이마트,인천광역시 연수구 경원대로 184 (동춘동),126.6811495,37.4042407
인천옥련DT,인천광역시 연수구 능허대로 137 (옥련동),126.6451556,37.4213600
송도캐슬파크,인천광역시 연수구 인천타워대로132번길 9 (송도동),126.6413467,37.3853568
송도현대아울렛,인천광역시 연수구 송도국제대로 123 (송도동),126.6579170,37.3816291
송도컨벤시아대로DT,인천광역시 연수구 벤처로 10 (송도동),126.6368615,37.3824844
검단사거리역,인천광역시 서구 완정로 172 (마전동),126.6574368,37.6026027
인천청라센트럴,"인천광역시 서구 청라커낼로 300 (청라동, 청라센트럴에일린의뜰)",126.6463372,37.5351542
인천청라한신,인천광역시 서구 청라커낼로260번길 27 (청라동),126.6470454,37.5323877
인천당하DT,인천광역시 서구 원당대로 668 (당하동),126.6754242,37.5933192
인천청라타워돔,인천광역시 서구 중봉대로 612번길 10-17,126.6520454,37.5339070
인천서구청DT,인천광역시 서구 서곶로 277 (심곡동),126.6764062,37.5423216
인천청라,인천광역시 서구 중봉대로 586번길 19,126.6520565,37.5321102
루원시티,"인천광역시 서구 가정로 437 (가정동, 루원시티 SK Leaders VIEW)",126.6701182,37.5242529
인천공촌DT,인천광역시 서구 경명대로694번길 2 (공촌동),126.6853664,37.5516701
인천청라DT,인천광역시 서구 국제대로 237 (청라동),126.6473418,37.5417874
부평삼거리역DT,인천광역시 남동구 경인로 750 (간석동),126.7101783,37.4765822
인천구월아시아드,인천광역시 남동구 인하로 556 (구월동),126.7084914,37.4425942
인천터미널사거리,인천광역시 남동구 예술로 126 (구월동),126.7008867,37.4451296
인천서창,"인천광역시 남동구 서창남로 51 (서창동) 101,102,103호",126.7498308,37.4239169
인천간석DT,인천광역시 남동구 경원대로 974 (간석동),126.6908391,37.4697407
인천예술회관역,인천광역시 남동구 예술로 174 (구월동) 흥국생명,126.7014538,37.4495095
구월로데오,"인천광역시 남동구 인하로 497-22, 2층 (구월동)",126.7021912,37.4442063
구월길병원,"인천광역시 남동구 남동대로 773, , 14 삼성화재 인천사옥 (구월동)",126.7075546,37.4515756
인천구월,"인천광역시 남동구 예술로 138 (구월동) 101,102,111,201,209호 일부,210호 일부",126.7009869,37.4463303
인천논현,"인천광역시 남동구 논고개로 93, 111,112, 206, 207호 (논현동)",126.7247976,37.3995195
인천구월중앙,인천광역시 남동구 용천로 70 (구월동),126.7149615,37.4558916
간석중앙공원DT,인천광역시 남동구 경인로 563 (간석동),126.7007057,37.4633103
영종하늘도시,인천광역시 중구 하늘중앙로195번길 15 (중산동),126.5613393,37.4897096
인천공항T2출국,인천광역시 중구 공항로 272 (운서동),126.4276993,37.4583507
인천공항T2에어,인천광역시 중구 공항로 272 (운서동) 제2여객터미널 3층 탑승지역 25-235,126.4276993,37.4583507
인천공항T2입국,인천광역시 중구 공항로 272 (운서동) 제2여객터미널 1층 환영홀지역 23-202,126.4276993,37.4583507
영종도운서역,인천광역시 중구 신도시남로142번길 17 (운서동),126.4926506,37.4940245
인천공항중앙,인천광역시 중구 공항로 272 (운서동) 인천국제공항여객터미널 FB-P5-73,126.4276993,37.4583507
인천공항랜드,인천광역시 중구 공항로 272 (운서동) 인천공항,126.4276993,37.4583507
동해DT,강원도 동해시 중앙로 219 (천곡동),129.1147091,37.5201540
동해IC DT,강원도 동해시 동해대로 5453 (평릉동),129.1043870,37.5288877
설악쏘라노,강원도 속초시 미시령로2983번길 111 (장사동),128.5284588,38.2106436
속초DT,강원도 속초시 동해대로 4114 (조양동),128.5844376,38.1898928
속초중앙로,강원도 속초시 중앙로 123 (금호동),128.5895304,38.2026130
속초교동DT,강원도 속초시 청대로 339 (교동),128.5717830,38.1966779
춘천구봉산R,강원도 춘천시 동면 순환대로 1154-63,127.7759661,37.8884076
춘천후평DT,강원도 춘천시 후석로 318 (후평동),127.7505130,37.8795144
춘천석사DT,강원도 춘천시 후석로 13 (석사동),127.7392899,37.8566966
춘천명동,강원도 춘천시 중앙로 57 (중앙로2가),127.7274524,37.8798627
춘천이마트,강원도 춘천시 경춘로 2353 (온의동) E-마트 춘천점내 1층,127.7186205,37.8637836
강원대,강원도 춘천시 서부대성로 243-1 (효자동),127.7451255,37.8727585
춘천퇴계DT,강원도 춘천시 안마산로 95 (퇴계동),127.7262098,37.8552913
춘천온의,강원도 춘천시 방송길 104 (온의동),127.7208602,37.8675179
비발디파크,강원도 홍천군 서면 한치골길 262,127.6873348,37.6523371
오션월드,강원도 홍천군 서면 한치골길 262,127.6873348,37.6523371
강릉송정DT,강원도 강릉시 경강로 2400 (송정동),128.9229624,37.7719118
강릉강문해변,강원도 강릉시 창해로350번길 3 (강문동),128.9185180,37.7947767
강릉교동광장,강원도 강릉시 교동광장로 114 (교동),128.8770950,37.7643285
강릉중앙로,강원도 강릉시 경강로 2096 (임당동),128.8962015,37.7545310
강릉안목항,강원도 강릉시 창해로14번길 40 (견소동),128.9487832,37.7713649
강릉율곡DT,강원도 강릉시 율곡로 2996 (교동),128.8922107,37.7699088
소노델피노,강원도 고성군 토성면 미시령옛길 1153,128.4937302,38.2120781
원주반곡DT,강원도 원주시 동부순환로 37 (반곡동),127.9716784,37.3197069
원주명륜DT,강원도 원주시 남원로 588 (명륜동),127.9498268,37.3359752
원주무실,강원도 원주시 능라동길 73 (무실동),127.9302630,37.3331058
원주혁신도시,강원도 원주시 혁신로 61 (반곡동),127.9808349,37.3233936
원주터미널,강원도 원주시 서원대로 178 (단계동),127.9311415,37.3438463
오크밸리,강원도 원주시 지정면 오크밸리1길 70,127.8190577,37.4342090
원주IC DT,강원도 원주시 현충로 294 (태장동),127.9488842,37.3795735
원주단구DT,강원도 원주시 서원대로 443 (단구동),127.9534717,37.3284900
김해구산DT,경상남도 김해시 김해대로 1918 (구산동),128.8663801,35.2553174
김해진영DT,경상남도 김해시 진영읍 여래로20번길 34-26,128.7318356,35.3060092
신세계김해R,경상남도 김해시 김해대로 2232 신세계백화점 1층,128.8722425,35.2293396
김해이마트,경상남도 김해시 김해대로 2232 김해이마트 1층,128.8722425,35.2293396
김해대로DT,경상남도 김해시 김해대로 2465,128.8964627,35.2279529
김해외동DT,경상남도 김해시 분성로 146 (외동),128.8627714,35.2293546
김해율하,경상남도 김해시 율하카페길 77 (관동동) 1층,128.8128236,35.1764259
김해삼계,경상남도 김해시 가야로 182 (삼계동),128.8716810,35.2615321
김해내동,경상남도 김해시 경원로 67 (내동),128.8675097,35.2371561
김해주촌DT,경상남도 김해시 주촌면 선천로 99,128.8434973,35.2353019
김해가야로DT,경상남도 김해시 가야로 450 (동상동),128.8843682,35.2408788
장유율하,경상남도 김해시 율하6로 67 1층 105호 (장유동),128.8227952,35.1714838
진영신도시,경상남도 김해시 진영읍 장등로10번길 1,128.7352747,35.3074205
김해율하신도시,경상남도 김해시 율하3로 32 (율하동),128.8138363,35.1709804
김해금관대로DT,경상남도 김해시 금관대로 1293 (내동),128.8609347,35.2399170
밀양DT,경상남도 밀양시 밀양대로 1792 (삼문동),128.7511477,35.4852865
경남사천DT,경상남도 사천시 사천읍 사천대로 1844,128.0835911,35.0810444
사천벌리,경상남도 사천시 주공로 31 (벌리동),128.0863525,34.9411516
진주평거,경상남도 진주시 진양호로 206 BYC빌딩1층,128.0600550,35.1725205
진주칠암DT,경상남도 진주시 진주대로829번길 2 (주약동),128.0928325,35.1748631
진주중안,경상남도 진주시 진양호로527번길 3 (중안동),128.0829692,35.1929315
진주신안,경상남도 진주시 진양호로 353 (신안동),128.0679885,35.1841547
진주경상대,경상남도 진주시 진주대로 510 (가좌동),128.1056728,35.1524276
진주혁신도시,경상남도 진주시 에나로127번길 30 (충무공동),128.1439487,35.1806929
경상대칠암캠퍼스,경상남도 진주시 동진로 22 (칠암동),128.0936391,35.1785237
마산회원DT,경상남도 창원시 마산회원구 3·15대로 518 (회원동),128.5744831,35.2205844
창원상남로,경상남도 창원시 성산구 상남로 88 (상남동),128.6812335,35.2212646
마산역DT,경상남도 창원시 마산회원구 3·15대로 715 (석전동),128.5804808,35.2363585
마산해안대로DT,경상남도 창원시 마산합포구 해안대로 383 (오동동),128.5809521,35.2045294
진해자은DT,경상남도 창원시 진해구 진해대로 962 (자은동),128.7068874,35.1437457
창원역DT,경상남도 창원시 의창구 의창대로 68 (팔용동),128.6078747,35.2570955
창원호계DT,경상남도 창원시 마산회원구 내서읍 호원로 315,128.5229612,35.2615162
창원마창대교,경상남도 창원시 성산구 삼귀로 159 (귀곡동),128.5973008,35.1706099
삼성창원병원,경상남도 창원시 마산회원구 팔용로 158 (합성동),128.5923771,35.2424957
마산터미널,경상남도 창원시 마산회원구 합성남로 6-1 (합성동),128.5832704,35.2381358
창원상남사거리,경상남도 창원시 성산구 단정로 25,128.6834326,35.2201873
진해용원,경상남도 창원시 진해구 안골로 336 (용원동) 형제빌딩,128.8098778,35.1010954
창원리베라,경상남도 창원시 성산구 중앙대로100번길 9 (상남동),128.6804939,35.2232489
창원상남중앙,경상남도 창원시 성산구 마디미로 20 (상남동),128.6844588,35.2226788
창원상남동R,경상남도 창원시 성산구 상남로 132 (상남동),128.6839519,35.2244708
신세계마산,경상남도 창원시 마산합포구 합포로 251 (산호동) 신세계백화점 내 지하1층,128.5866004,35.2196015
창원시티세븐,경상남도 창원시 성산구 원이대로 320 (대원동),128.6544087,35.2396668
경남대,경상남도 창원시 마산합포구 월영남로 3 (해운동),128.5586279,35.1784398
창원용지호수,경상남도 창원시 성산구 용지로169번길 1 (용호동),128.6818522,35.2298639
마산월남동DT,경상남도 창원시 마산합포구 3·15대로 70 (월남동2가),128.5612724,35.1859151
마산봉암로DT,경상남도 창원시 마산회원구 봉양로 118 (봉암동),128.5993483,35.2188259
창원반림,경상남도 창원시 성산구 반송로 150 (반림동),128.6718156,35.2359786
창원유니시티,경상남도 창원시 의창구 중동중앙로 47 (중동),128.6249983,35.2566260
창원NC파크R,"경상남도 창원시 마산회원구 삼호로 63 (양덕동), 창원NC파크",128.5823007,35.2219147
창원중앙역,경상남도 창원시 의창구 용동로 91 (사림동),128.7014385,35.2387174
진해부산신항,경상남도 창원시 진해구 신항동로 121 (용원동) 112호,128.8149542,35.0883930
창원대로DT,경상남도 창원시 성산구 성산패총로 182 (가음정동),128.6836853,35.2095577
창원사파,"경상남도 창원시 성산구 창이대로689번길 4-4 (사파동) 1,2층",128.7007789,35.2230634
진해장천,"경상남도 창원시 진해구 충장로 662 (장천동), [108호, 109호, 110호, 111호]",128.7035570,35.1306427
창원파티마병원,경상남도 창원시 의창구 창이대로 45 (명서동),128.6459130,35.2372930
창원내서,경상남도 창원시 마산회원구 내서읍 광려천서로 81,128.5106685,35.2490244
창원팔용,경상남도 창원시 의창구 팔용로 419 (팔용동),128.6118995,35.2544309
통영이마트,경상남도 통영시 광도면 죽림4로 9,128.4179907,34.8871667
거제대로DT,경상남도 거제시 거제대로 4521 (수월동),128.6415087,34.8946919
거제고현,경상남도 거제시 거제중앙로 1936 (고현동),128.6221851,34.8907710
소노캄거제,경상남도 거제시 일운면 거제대로 2660 1층,128.7029372,34.8433706
디큐브거제,경상남도 거제시 장평로 12 (장평동),128.6164715,34.8907590
거제옥포DT,경상남도 거제시 거제대로 3718 (옥포동),128.6915758,34.8889881
남양산IC DT,경상남도 양산시 동면 양산대로 532,129.0304219,35.3199913
양산증산역,경상남도 양산시 물금읍 증산역로 177,129.0093721,35.3098631
양산가촌,경상남도 양산시 물금읍 야리로 25,129.0014428,35.3170889
양산덕계DT,경상남도 양산시 웅상대로 860 (덕계동),129.1554999,35.3761025
양산터미널,경상남도 양산시 양산역1길 7 (중부동) 양산시외버스터미널,129.0268500,35.3353404
양산범어,경상남도 양산시 물금읍 범어로 62,129.0143016,35.3287175
양산이마트,"경상남도 양산시 양산역6길 12, 양산이마트 1층 (중부동)",129.0263678,35.3368607
양산물금DT,경상남도 양산시 물금읍 황산로 346,128.9862336,35.3075854
경산중방DT,경상북도 경산시 경안로 222 (중방동),128.7368415,35.8274276
영남대아트센터,경상북도 경산시 대학로 280 (대동) 영남대학교,128.7575093,35.8325351
영남대중앙도서관,경상북도 경산시 대학로 280 (조영동) 영남대학교,128.7575093,35.8325351
영남대,"경상북도 경산시 청운로 16, 1~3층 (대동)",128.7530783,35.8370047
대구가톨릭대,경상북도 경산시 하양읍 하양로 18,128.8124560,35.9078114
경산이마트,경상북도 경산시 옥산로 227 (중산동) 경산이마트,128.7207433,35.8352147
대구대학교,경상북도 경산시 진량읍 대구대로 201,128.8491000,35.9010490
경산임당역DT,경상북도 경산시 대학로 208 (계양동),128.7457080,35.8338082
경산중산,"경상북도 경산시 펜타힐즈로 74 (중산동) 109호,110호,111호,112호",128.7198910,35.8300949
경산하양DT,경상북도 경산시 진량읍 대학로 1417 경상북도 경산시 진량읍 대학로 1417,128.8237922,35.9050338
경주보문,경상북도 경주시 보문로 537 (천군동),129.2851516,35.8364049
경주터미널DT,경상북도 경주시 태종로 686 (사정동),129.2033347,35.8380478
경주황성,경상북도 경주시 황성로1번길 4 (황성동),129.2129738,35.8639080
경주대릉원,경상북도 경주시 첨성로 125 (황남동),129.2149615,35.8340127
경주보문호수DT,경상북도 경주시 보문로 132-6 (북군동),129.2686445,35.8532261
경주중앙,경상북도 경주시 원효로 105-1 (노동동),129.2124743,35.8421085
경주보문로DT,"경상북도 경주시 보문로 510-6, 외 1번지(신평동 719-220) (천군동)",129.2860152,35.8388182
경주용강DT,경상북도 경주시 산업로 4350 (용강동),129.2243595,35.8677638
구미상모DT,경상북도 구미시 금오대로 439 (상모동),128.3563580,36.0822801
구미도량DT,경상북도 구미시 야은로 312 (도량동),128.3168238,36.1384016
구미옥계,경상북도 구미시 옥계북로 20 (양포동),128.4195605,36.1382988
구미시청DT,경상북도 구미시 송정대로 27 (송정동),128.3415818,36.1176450
구미인의,경상북도 구미시 인동중앙로 15 (인의동),128.4207005,36.1069846
구미금오산DT,경상북도 구미시 금오산로 205 (남통동),128.3235989,36.1222312
구미,경상북도 구미시 구미중앙로 94 (원평동),128.3327435,36.1281661
구미인동,"경상북도 구미시 인동가산로 9-3, 노블레스타워 1층 (황상동)",128.4184992,36.1080181
구미공단,"경상북도 구미시 1공단로 212, HALLA SIGMA VALLEY 106 (공단동)",128.3859000,36.1013833
구미광평DT,경상북도 구미시 구미대로 188 (광평동),128.3636146,36.1036229
구미문성DT,경상북도 구미시 고아읍 들성로 207,128.3429178,36.1608632
구미확장단지,경상북도 구미시 산동읍 신당1로4길 19,128.4299374,36.1558111
상주무양DT,경상북도 상주시 영남제일로 1683 (무양동),128.1572980,36.4260395
포항쌍용DT,경상북도 포항시 남구 중흥로 122 (상도동),129.3527594,36.0153707
포항오천,경상북도 포항시 남구 오천읍 원동로 15,129.4027187,35.9642402
포항대이,경상북도 포항시 남구 포스코대로 124 (대잠동),129.3395207,36.0253085
포항이마트,"경상북도 포항시 남구 냉천로 10, 이마트 포항점 1층 (인덕동)",129.3976302,35.9924753
포항시청,경상북도 포항시 남구 시청로 5 (대잠동),129.3419970,36.0181554
포항세명기독병원,경상북도 포항시 남구 포스코대로 351 (대도동),129.3622256,36.0177172
포항포스코DT,경상북도 포항시 남구 동해안로6213번길 15-15 (동촌동),129.3888600,35.9963088
문경새재,경상북도 문경시 문경읍 새재로 906,128.0775856,36.7594023
김천구미역,경상북도 김천시 혁신3로 26 (율곡동),128.1816698,36.1165343
김천시청DT,경상북도 김천시 시청로 47 (대신동),128.1176050,36.1325473
안동이마트,경상북도 안동시 옥동1길 2 (옥동),128.6994043,36.5584744
안동병원,경상북도 안동시 앙실로 11 (수상동),128.7010976,36.5467408
안동시청,경상북도 안동시 서동문로 173 (삼산동),128.7311352,36.5663637
안동강변DT,경상북도 안동시 육사로 327 (법흥동),128.7398230,36.5622844
안동옥동,경상북도 안동시 광명로 166 (옥동),128.7015366,36.5622895
영천완산DT,경상북도 영천시 영화로 272 (완산동),128.9491256,35.9669902
포항죽도DT,경상북도 포항시 북구 새천년대로 486 699-1 에스오일,129.3479959,36.0183754
포항장성DT,경상북도 포항시 북구 새천년대로 1255 (장성동),129.3842808,36.0744862
포항양덕,경상북도 포항시 북구 장량로 162 (양덕동),129.3981817,36.0815570
포항중앙,경상북도 포항시 북구 불종로 41 (신흥동),129.3641053,36.0387052
포항영일대비치,경상북도 포항시 북구 삼호로 186 (항구동),129.3769604,36.0549881
포항중앙로DT,경상북도 포항시 북구 중앙로 197 (죽도동),129.3659694,36.0305763
전남광양DT,전라남도 광양시 중마중앙로 143,127.6977924,34.9431962
광양LF,전라남도 광양시 광양읍 순광로 466,127.5678273,34.9625085
광양마동DT,전라남도 광양시 백운로 1267 (마동),127.7064342,34.9398213
목포터미널DT,전라남도 목포시 영산로 495 (상동),126.4168254,34.8099241
목포하당,전라남도 목포시 백년대로 293 (상동),126.4198250,34.8039264
목포북항DT,전라남도 목포시 고하대로 694 (산정동),126.3732784,34.8086865
목포옥암,전라남도 목포시 백년대로375번길 1 (옥암동),126.4272203,34.8074151
목포평화광장,전라남도 목포시 미항로 137 (상동),126.4349130,34.7970104
목포용해DT,전라남도 목포시 대양로 133 (용해동),126.3941925,34.8222445
목포남악,전라남도 무안군 남악3로82번길 11,126.4617255,34.8131082
전남도청DT,전라남도 무안군 삼향읍 남악3로 54,126.4605740,34.8102555
순천연향,전라남도 순천시 연향번영길 118 (연향동),127.5187525,34.9522945
순천신대,전라남도 순천시 해룡면 향매로 99,127.5502658,34.9335454
순천호수공원,전라남도 순천시 왕지2길 17 (왕지동),127.5232294,34.9681643
순천조례,전라남도 순천시 비봉2길 9 (조례동),127.5209029,34.9719634
순천용당DT,전라남도 순천시 중앙로 398 (가곡동),127.4853529,34.9801427
순천팔마DT,전라남도 순천시 백강로 23 (연향동),127.5217316,34.9351635
순천이마트,전라남도 순천시 팔마로 191 (덕암동),127.5083777,34.9425240
여수해양공원,전라남도 여수시 이순신광장로 192 (종화동),127.7442285,34.7383405
여수학동DT,전라남도 여수시 도원로 271 (학동),127.6610737,34.7614387
여수웅천,전라남도 여수시 예울마루로 37-53 (웅천동),127.6708786,34.7462690
여수둔덕DT,전라남도 여수시 좌수영로 482 (둔덕동),127.6974982,34.7687670
여수여서,전라남도 여수시 여문1로 49 (여서동),127.7041953,34.7528690
여수여천,전라남도 여수시 망마로 39 (학동),127.6671693,34.7597450
여수신월DT,전라남도 여수시 신월로 567 (신월동),127.7088707,34.7246943
여수마리나,전라남도 여수시 웅천로 134 (웅천동),127.6778506,34.7403547
전남화순DT,전라남도 화순군 화순읍 서양로 478,126.9887666,35.0685266
전남나주,전라남도 나주시 상야1길 21 (빛가람동),126.7878845,35.0225784
나주혁신DT,전라남도 나주시 빛가람로 838 (빛가람동),126.8033958,35.0213161
전북김제DT,전라북도 김제시 콩쥐팥쥐로 11 (검산동),126.9071457,35.8052973
전북남원DT,전라북도 남원시 요천로 1477 (쌍교동),127.3832621,35.4040025
익산모현,전라북도 익산시 선화로 106 (모현동1가),126.9424693,35.9485028
익산영등DT,전라북도 익산시 무왕로 1005 (영등동),126.9687910,35.9593994
익산영등,전라북도 익산시 무왕로 1052 (영등동),126.9737946,35.9581372
익산동산DT,전라북도 익산시 평동로 722 (동산동),126.9583673,35.9289684
전주송천DT,전라북도 전주시 덕진구 송천중앙로 228 (송천동2가),127.1219280,35.8674340
전북대병원DT,전라북도 전주시 덕진구 백제대로 616 (금암동),127.1370427,35.8416479
전주혁신도시,전라북도 전주시 덕진구 기지로 68 (중동),127.0593199,35.8381029
전주덕진광장DT,전라북도 전주시 덕진구 기린대로 491 (덕진동1가),127.1242736,35.8429457
전북대,전라북도 전주시 덕진구 명륜4길 12 (덕진동1가),127.1268077,35.8429525
전주에코시티,전라북도 전주시 덕진구 세병2길 10 (송천동2가),127.1245697,35.8730827
전주인후DT,전라북도 전주시 덕진구 아중로 135 (인후동1가),127.1644168,35.8257534
전주호성DT,전라북도 전주시 덕진구 동부대로 860 (호성동1가),127.1507632,35.8636632
전주IC DT,전라북도 전주시 덕진구 기린대로 1022 (여의동),127.0745599,35.8680373
전주평화DT,전라북도 전주시 완산구 모악로 4696 (평화동2가),127.1310724,35.7884257
전주백제대로DT,전라북도 전주시 완산구 백제대로 242 (중화산동2가),127.1234326,35.8146251
전주효자DT,전라북도 전주시 완산구 용머리로 7 (효자동1가),127.1111400,35.8056207
전주서신,전라북도 전주시 완산구 서신로 104 (서신동),127.1161181,35.8346285
전주홍산로,전라북도 전주시 완산구 홍산로 238 (효자동2가),127.1064454,35.8148715
전주한옥마을,전라북도 전주시 완산구 팔달로 123 (전동),127.1485567,35.8134226
전북도청,전라북도 전주시 완산구 홍산중앙로 22 (효자동3가),127.1093326,35.8155919
전주경원,전라북도 전주시 완산구 전주객사4길 44-18 (고사동),127.1444733,35.8197831
전주신시가지,전라북도 전주시 완산구 우전로 255 (효자동2가),127.1015865,35.8172923
전주효천DT,전라북도 전주시 완산구 천잠로 149 (효자동2가),127.0993145,35.8008092
전북정읍DT,전라북도 정읍시 충정로 271 (수성동),126.8518976,35.5705008
군산나운DT,전라북도 군산시 하나운안2길 4 (나운동),126.6955565,35.9627215
군산수송,전라북도 군산시 수송로 195 (수송동),126.7171744,35.9642415
군산대,전라북도 군산시 황룡로 7 (미룡동),126.6860440,35.9457503
군산조촌DT,전라북도 군산시 번영로 133 (조촌동),126.7346697,35.9669281
군산수송DT,전라북도 군산시 공단대로 243 (수송동),126.7146288,35.9588554
공주동학사DT,충청남도 공주시 반포면 동학사1로 114,127.2537750,36.3635199
공주신관,충청남도 공주시 번영1로 113 (신관동),127.1400169,36.4745789
공주DT,충청남도 공주시 무령로 467 (신관동),127.1429382,36.4682135
논산중앙,충청남도 논산시 중앙로398번길 13-10,127.0899017,36.2012760
논산내동DT,충청남도 논산시 시민로 165 (내동),127.0997265,36.1820819
충남보령DT,충청남도 보령시 대해로 101 (궁촌동),126.5892575,36.3409566
서산예천DT,충청남도 서산시 나무장1길 22 (예천동),126.4401528,36.7717747
서산호수,"충청남도 서산시 호수공원2로 33, 1~2층 (읍내동)",126.4488023,36.7766528
천안신부R,충청남도 천안시 동남구 만남로 43 (신부동) 아라리오갤러리,127.1563472,36.8205130
천안청당,충청남도 천안시 동남구 청수14로 102 (청당동),127.1573869,36.7855627
천안안서,충청남도 천안시 동남구 안서3길 3 (안서동),127.1798830,36.8301893
천안IC DT,충청남도 천안시 동남구 신부15길 3 (신부동),127.1614482,36.8203283
천안신부동,충청남도 천안시 동남구 만남로 9 (신안동),127.1529900,36.8191757
신세계천안아산,충청남도 천안시 동남구 만남로 43 (신부동) B관 4층,127.1563472,36.8205130
천안청당신도시,충청남도 천안시 동남구 남부대로 322 1동 1층,127.1528517,36.7813351
천안대로DT,충청남도 천안시 동남구 천안대로 527 (구성동),127.1642436,36.7950367
천안서북이마트,충청남도 천안시 서북구 삼성대로 20 (백석동),127.1224038,36.8385820
천안백석,충청남도 천안시 서북구 백석로 85-4 (백석동),127.1215864,36.8238058
천안불당DT,충청남도 천안시 서북구 불당34길 4 (불당동),127.1061257,36.8054171
천안서부대로DT,충청남도 천안시 서북구 서부대로 405 (쌍용동),127.1269896,36.8036803
천안두정역DT,충청남도 천안시 서북구 두정로 264 (두정동),127.1463241,36.8328702
천안시청,충청남도 천안시 서북구 불당22대로 67 (불당동),127.1065681,36.8165302
천안쌍용역,충청남도 천안시 서북구 충무로 133 (쌍용동),127.1222263,36.7931590
천안신불당,충청남도 천안시 서북구 불당33길 24 (불당동),127.1082039,36.8124074
천안성정DT,충청남도 천안시 서북구 동서대로 154 (성정동),127.1403519,36.8253929
천안불당,충청남도 천안시 서북구 불당4로 91 (불당동),127.1109606,36.8100436
천안두정,충청남도 천안시 서북구 부성4길 3 (부성1동),127.1348679,36.8340505
천안이마트,충청남도 천안시 서북구 충무로 187 (쌍용동) 천안이마트 1층,127.1270861,36.7959220
천안업성레이크,충청남도 천안시 서북구 업성수변로 69 (성성동),127.1380678,36.8454631
충남홍성DT,충청남도 홍성군 홍성읍 도청대로 58,126.6635355,36.6096225
충남도청,충청남도 홍성군 홍북읍 청사로150번길 24,126.6814076,36.6570482
계룡대로DT,충청남도 계룡시 엄사면 번영로 6,127.2443688,36.2884204
당진시곡DT,충청남도 당진시 서해로 6283 (시곡동),126.6838075,36.9027408
당진문예의전당,충청남도 당진시 시청1로 78 (읍내동) 1층,126.6390636,36.8912032
아산방축DT,충청남도 아산시 온천대로 1392 (방축동),126.9927387,36.7836580
아산배방,충청남도 아산시 배방읍 배방로 22,127.0539208,36.7748491
아산탕정,충청남도 아산시 탕정면 탕정면로 10,127.0582855,36.7985533
아산용화,충청남도 아산시 어의정로 117 (용화동),127.0085749,36.7744067
아산터미널,충청남도 아산시 번영로 232 (모종동),127.0162738,36.7839019
아산권곡,충청남도 아산시 문화로 271-6 (권곡동) 101~105호,127.0158909,36.7884373
아산모종,충청남도 아산시 온천대로 1721 (모종동) 아산축산농협 1층,127.0286553,36.7764336
천안아산역,충청남도 아산시 배방읍 고속철대로 147 101~105호,127.1057821,36.7974301
충북증평,충청북도 증평군 증평읍 광장로 40,127.5789068,36.7890550
청주용암DT,충청북도 청주시 상당구 1순환로 1243 (용암동),127.5039099,36.6075259
청주용담DT,충청북도 청주시 상당구 산성로 129 (용담동),127.5051864,36.6342983
청주서문,충청북도 청주시 상당구 무심동로392번길 20 (서문동),127.4860107,36.6353489
충주호암DT,충청북도 충주시 중원대로 3245 (호암동),127.9236695,36.9590046
충주시청DT,충청북도 충주시 국원대로 208-1 (금릉동),127.9287492,36.9902037
충주터미널,충청북도 충주시 봉계13길 2 (봉방동),127.9152027,36.9806813
충주연수,충청북도 충주시 계명대로 227 (연수동),127.9399101,36.9827320
충주교현DT,충청북도 충주시 금봉대로 358 (교현동),127.9472370,36.9666130
충북혁신도시,충청북도 음성군 맹동면 원중로 1416,127.5428944,36.9086674
제천DT,충청북도 제천시 의림대로 181 (중앙로2가),128.2131588,37.1437583
청주비하DT,충청북도 청주시 흥덕구 2순환로 1078 (비하동),127.4221308,36.6384451
청주오송,충청북도 청주시 흥덕구 오송읍 오송생명로 220,127.3330170,36.6299127
청주봉명DT,충청북도 청주시 흥덕구 1순환로 514 (봉명동),127.4645496,36.6467777
청주강서,충청북도 청주시 흥덕구 강서로 121 (강서동),127.4296302,36.6253866
청주지웰시티,충청북도 청주시 흥덕구 대농로 43 (복대동) 신영지웰시티 1차 상업시설,127.4264585,36.6433461
현대충청,충청북도 청주시 흥덕구 직지대로 308 (복대동),127.4266026,36.6448285
청주터미널,충청북도 청주시 흥덕구 풍산로 15 (가경동),127.4319939,36.6267841
청주복대지웰,충청북도 청주시 흥덕구 대농로 52 (복대동),127.4282036,36.6415868
청주이마트,충청북도 청주시 서원구 청남로 1853 (미평동),127.4746099,36.6011887
청주사직DT,충청북도 청주시 서원구 사직대로 302 (사직동),127.4811793,36.6359109
청주성화,충청북도 청주시 서원구 복대로 5 (개신동),127.4460624,36.6176382
충북대,충청북도 청주시 서원구 내수동로 113 (사창동),127.4597095,36.6340021
청주분평DT,충청북도 청주시 서원구 1순환로 1154 (분평동),127.4948214,36.6058052
오창호수공원,"충청북도 청주시 청원구 오창읍 중심상업1로 20 101,102,103,104호",127.4277230,36.7124817
청주율량DT,충청북도 청주시 청원구 충청대로107번길 8 (율량동),127.4930456,36.6662396
오창과학단지,충청북도 청주시 청원구 오창읍 과학산업2로 385,127.4233129,36.7164860
제주신화월드R,제주특별자치도 서귀포시 안덕면 신화역사로304번길 38 B1-29,126.3163521,33.3049727
제주에듀시티,제주특별자치도 서귀포시 대정읍 에듀시티로 36,126.2842867,33.2918273
제주성산DT,제주특별자치도 서귀포시 성산읍 일출로 80,126.9207008,33.4497093
제주중문DT,제주특별자치도 서귀포시 천제연로 95(색달동),126.4158613,33.2550690
제주송악산,제주특별자치도 서귀포시 대정읍 형제해안로 322,126.2899731,33.2067772
서귀포DT,제주특별자치도 서귀포시 일주서로 11 (강정동),126.5066844,33.2495312
성산일출봉,"제주특별자치도 서귀포시 성산읍 일출로 284-5 1,2층",126.9354811,33.4628720
제주중문,제주특별자치도 서귀포시 중문관광로110번길 32 (색달동),126.4126393,33.2511969
서귀포올레,제주특별자치도 서귀포시 중정로 69 (서귀동),126.5637216,33.2482641
제주도남DT,제주특별자치도 제주시 연북로 394 (도남동),126.5234845,33.4803358
제주협재,제주특별자치도 제주시 한림읍 한림로 337,126.2402329,33.3938307
제주외도DT,제주특별자치도 제주시 일주서로 7300 (외도일동),126.4270708,33.4923277
제주삼화DT,제주특별자치도 제주시 연삼로 884 (도련일동),126.5804416,33.5117386
